{"name":"okubo Station (Kyoto)","lat":34.87464910000001,"lng":135.7770964},
{"name":"Okudokai Station","lat":33.8891637,"lng":130.7649112},
{"name":"okubo Station (Tokyo)","lat":35.7013008,"lng":139.7000494},
{"name":"Okucho Station","lat":35.784451,"lng":139.821702},
{"name":"Okuhamanako Station","lat":34.7951927,"lng":137.5459294},
{"name":"Okuda Station","lat":35.235408,"lng":136.811009},
{"name":"okubo Station (Hyogo)","lat":34.68195499999999,"lng":134.939081},
{"name":"Okuizumi Station","lat":35.149785,"lng":138.147814},
{"name":"Okunai Station","lat":40.903133,"lng":140.672193},
{"name":"Okunakayama-Kogen Station","lat":40.066332,"lng":141.22841},
{"name":"okuma Station","lat":38.0671977,"lng":140.8548204},
{"name":"okuki Station","lat":40.495211,"lng":141.62288},
{"name":"okuradani Station","lat":34.6465346,"lng":135.0080299},
{"name":"Oku-Nikkawa Station","lat":38.325961,"lng":140.5943851},
{"name":"Okunoyahama Station","lat":35.4657858,"lng":139.6223132},
{"name":"okurayama Station (Hyogo)","lat":34.684682,"lng":135.174616},
{"name":"Okusawa Station","lat":35.6039879,"lng":139.6722637},
{"name":"Okuoikojo Station","lat":35.16795,"lng":138.181088},
{"name":"okusa Station","lat":35.6039879,"lng":139.6722637},
{"name":"okurayama Station (Kanagawa)","lat":35.5218202,"lng":139.6298496},
{"name":"Okutama Station","lat":35.809374,"lng":139.096929},
{"name":"Okutsugaru-Imabetsu Station","lat":41.14509899999999,"lng":140.515583},
{"name":"oma Station","lat":33.40698,"lng":133.287739},
{"name":"okuwa Station (Nagano)","lat":35.6843866,"lng":137.664304},
{"name":"okuwa Station (Tochigi)","lat":36.760838,"lng":139.713531},
{"name":"omachi Station (Hiroshima)","lat":34.461454,"lng":132.470836},
{"name":"omachi Station (Saga)","lat":33.212412,"lng":130.106473},
{"name":"omachi Station (Chiba)","lat":35.7750831,"lng":139.9735456},
{"name":"omachi Station (Kagawa)","lat":34.3373576,"lng":134.141232},
{"name":"omachi Station (Toyama)","lat":36.672754,"lng":137.2207241},
{"name":"omae Station","lat":36.513584,"lng":138.529033},
{"name":"omagari Station (Akita)","lat":39.4654822,"lng":140.4795942},
{"name":"Omaeda Station","lat":36.12895200000001,"lng":139.222322},
{"name":"Omachi Nishi-koen Station","lat":38.2590492,"lng":140.8638216},
{"name":"omagoshi Station","lat":40.492354,"lng":139.95003},
{"name":"omama Station","lat":36.434613,"lng":139.277527},
{"name":"omagari Station (Aomori)","lat":39.4654822,"lng":140.4795942},
{"name":"Omata Station","lat":36.375067,"lng":139.374327},
{"name":"Ombara Station","lat":35.026224,"lng":132.547561},
{"name":"Omatsu Station","lat":36.40271,"lng":136.452831},
{"name":"ome Station","lat":35.7902971,"lng":139.2583877},
{"name":"Ombetsu Station","lat":42.889058,"lng":143.9319239},
{"name":"omekaido Station","lat":35.730976,"lng":139.476566},
{"name":"omika Station","lat":36.512836,"lng":140.619492},
{"name":"omi Station (Niigata)","lat":37.0226543,"lng":137.7945161},
{"name":"omi Station (Aichi)","lat":34.9301987,"lng":137.5485164},
{"name":"ominato Station","lat":41.280325,"lng":141.161573},
{"name":"omi-Hachiman Station","lat":35.1227453,"lng":136.1029559},
{"name":"omi-Imazu Station","lat":35.398315,"lng":136.032294},
{"name":"omi-Maiko Station","lat":35.23649899999999,"lng":135.959473},
{"name":"omi-Nagaoka Station","lat":35.358939,"lng":136.373932},
{"name":"omisaki Station","lat":32.8437542,"lng":130.3447001},
{"name":"omi-Nakasho Station","lat":35.4416547,"lng":136.0383731},
{"name":"omi-Shiotsu Station","lat":35.5383092,"lng":136.1514937},
{"name":"omi-Takashima Station","lat":35.292688,"lng":136.010133},
{"name":"omigawa Station","lat":35.849965,"lng":140.604549},
{"name":"Omigawa Station","lat":35.849965,"lng":140.604549},
{"name":"omitsu Station","lat":34.664073,"lng":136.368818},
{"name":"omiya Station (Kyoto)","lat":35.0036049,"lng":135.7487655},
{"name":"omijingumae Station","lat":35.028103,"lng":135.855767},
{"name":"omiyakoen Station","lat":35.92382990000001,"lng":139.6328972},
{"name":"omizo Station","lat":33.226972,"lng":130.449803},
{"name":"omiya Station (Saitama)","lat":35.9063548,"lng":139.6230662},
{"name":"Omoigawa Station","lat":36.351081,"lng":139.781098},
{"name":"Omochanomachi Station","lat":36.46668,"lng":139.829451},
{"name":"Omori Station (Shizuoka)","lat":35.192058,"lng":138.174393},
{"name":"omori Station (Shizuoka)","lat":35.192058,"lng":138.174393},
{"name":"Omokagebashi Station","lat":35.713012,"lng":139.714214},
{"name":"omori Station (Tokyo)","lat":35.5884467,"lng":139.7278683},
{"name":"omoridai Station","lat":35.584011,"lng":140.149543},
{"name":"omori-Kinjogakuin-mae Station","lat":35.206916,"lng":136.996577},
{"name":"omorimachi Station","lat":35.572528,"lng":139.732023},
{"name":"omorikaigan Station","lat":35.587555,"lng":139.735328},
{"name":"Omoromachi Station","lat":26.222833,"lng":127.69836},
{"name":"Omotesando Station","lat":35.6652511,"lng":139.7120921},
{"name":"omoto Station","lat":39.8427707,"lng":141.9583456},
{"name":"Omoshiroyama-Kogen Station","lat":38.332985,"lng":140.497088},
{"name":"omura Station (Hyogo)","lat":34.808608,"lng":134.971463},
{"name":"Omurai Station","lat":35.710293,"lng":139.827621},
{"name":"omura Station (Nagasaki)","lat":32.7527242,"lng":129.8714063},
{"name":"Omurajinjamae Station","lat":33.5399882,"lng":133.3928663},
{"name":"omuta Station","lat":33.0296748,"lng":130.4441325},
{"name":"Omuro-Ninnaji Station","lat":35.02641210000001,"lng":135.7139045},
{"name":"Onahama Station","lat":36.9554909,"lng":140.8541205},
{"name":"Onagawa Station","lat":38.4467498,"lng":141.4439951},
{"name":"Ona Station","lat":35.7123642,"lng":139.7761881},
{"name":"onaka Station","lat":34.7024854,"lng":135.4959506},
{"name":"Onda Station","lat":35.545442,"lng":139.492461},
{"name":"onakayama Station","lat":34.6664005,"lng":133.9186365},
{"name":"Onarimon Station","lat":35.655381,"lng":139.757129},
{"name":"Ongano Station","lat":36.6431243,"lng":138.1886437},
{"name":"Onigase Station","lat":33.195662,"lng":131.485405},
{"name":"onishi Station","lat":34.06615420000001,"lng":132.9294037},
{"name":"Onigoe Station","lat":35.719712,"lng":139.938},
{"name":"oniwa Station","lat":36.226963,"lng":137.941262},
{"name":"Onizuka Station","lat":33.421274,"lng":129.98709},
{"name":"Onnenai Station","lat":44.598462,"lng":142.309237},
{"name":"ono Station (Fukushima)","lat":37.409328,"lng":140.9842},
{"name":"Onjuku Station","lat":35.18756,"lng":140.351431},
{"name":"Onji Station","lat":34.609895,"lng":135.626218},
{"name":"Ono Station (Nagano)","lat":36.046901,"lng":137.970739},
{"name":"Ono Station (Hyogo)","lat":34.8432435,"lng":134.9342496},
{"name":"Ono Station (Kyoto)","lat":34.9612032,"lng":135.8126907},
{"name":"Onobori Station","lat":37.609073,"lng":139.6919409},
{"name":"Onodako Station","lat":33.971595,"lng":131.174911},
{"name":"Ono Station (Shiga)","lat":35.138648,"lng":135.92259},
{"name":"Onoda Station","lat":34.007813,"lng":131.185548},
{"name":"Onoekokomae Station","lat":40.6251646,"lng":140.5774495},
{"name":"Onoenomatsu Station","lat":34.748668,"lng":134.8211869},
{"name":"onodai Station","lat":40.18693,"lng":140.340622},
{"name":"Onogami Station","lat":36.552507,"lng":138.922164},
{"name":"onogo Station","lat":33.4107281,"lng":133.2946301},
{"name":"Ongagawa Station","lat":38.4467498,"lng":141.4439951},
{"name":"Onogamionsen Station","lat":36.5568778,"lng":138.9044379},
{"name":"Onohommachi Station","lat":32.833982,"lng":130.085513},
{"name":"onomachi Station","lat":34.4048389,"lng":133.1936527},
{"name":"Onomachi Station","lat":34.4048389,"lng":133.1936527},
{"name":"Onomichi Station","lat":34.4048389,"lng":133.1936527},
{"name":"onojo Station","lat":33.525474,"lng":130.4795724},
{"name":"Ononiimachi Station","lat":34.4048389,"lng":133.1936527},
{"name":"onohara Station","lat":36.018656,"lng":139.094171},
{"name":"Onoppunai Station","lat":44.911521,"lng":141.935918},
{"name":"onoshimo Station","lat":35.3109552,"lng":139.4876139},
{"name":"onori Station","lat":35.5884467,"lng":139.7278683},
{"name":"onoura Station","lat":34.284832,"lng":132.2656248},
{"name":"Onoya Station","lat":33.185135,"lng":131.452825},
{"name":"onoyama-koen Station","lat":26.2007691,"lng":127.6752784},
{"name":"Ontakesan Station","lat":35.585276,"lng":139.682388},
{"name":"Onuka Station","lat":34.7024854,"lng":135.4959506},
{"name":"onuki Station","lat":35.291758,"lng":139.855635},
{"name":"onuma Station","lat":41.9721935,"lng":140.6695944},
{"name":"ooka Station (Miyagi)","lat":35.116085,"lng":138.881974},
{"name":"ooka Station (Shizuoka)","lat":35.116085,"lng":138.881974},
{"name":"onumakoen Station","lat":41.981032,"lng":140.669745},
{"name":"ookayama Station","lat":35.6074019,"lng":139.6855889},
{"name":"ookashomae Station","lat":35.69057,"lng":139.692661},
{"name":"Oribe Station","lat":35.4989516,"lng":136.6673279},
{"name":"Oppama Station","lat":35.315638,"lng":139.624904},
{"name":"Orange Town Station","lat":34.3019705,"lng":134.1808096},
{"name":"Orihara Station","lat":36.096205,"lng":139.195242},
{"name":"Orihata Station","lat":38.066477,"lng":140.122605},
{"name":"Orikabe Station","lat":38.939388,"lng":141.452253},
{"name":"Origuchi Station","lat":34.7389874,"lng":135.5647076},
{"name":"Orii Station","lat":34.8265001,"lng":131.9867524},
{"name":"Orikasa Station","lat":39.447094,"lng":141.959517},
{"name":"Orio Station","lat":33.863876,"lng":130.71229},
{"name":"Orimoto Station","lat":36.340559,"lng":139.971305},
{"name":"Oritateguchi Station","lat":36.8597233,"lng":137.5328886},
{"name":"Oritate Station","lat":36.8579191,"lng":137.5410774},
{"name":"Oriwatari Station","lat":39.476368,"lng":140.09118},
{"name":"Oroku Station","lat":26.1965382,"lng":127.6670365},
{"name":"Osa Station","lat":34.896372,"lng":134.825695},
{"name":"Oroshimachi Station (Fukushima)","lat":37.795491,"lng":140.479503},
{"name":"Oryuzako Station","lat":31.789514,"lng":131.4675},
{"name":"Osaka Station","lat":34.7024854,"lng":135.4959506},
{"name":"Osafune Station","lat":34.6994148,"lng":134.0985229},
{"name":"Oroshimachi Station (Miyagi)","lat":38.25153460000001,"lng":140.920777},
{"name":"osaka Abenobashi Station","lat":34.6454938,"lng":135.5150557},
{"name":"Osaka Airport Station","lat":34.4320024,"lng":135.2303939},
{"name":"Osakabe Station","lat":35.076268,"lng":133.565968},
{"name":"Osaka Business Park Station","lat":34.692078,"lng":135.529529},
{"name":"Osaka Freight Terminal Station","lat":34.7024854,"lng":135.4959506},
{"name":"osakajo-kitazume Station","lat":34.694411,"lng":135.525141},
{"name":"Osakajokoen Station","lat":34.688079,"lng":135.534446},
{"name":"osakako Station","lat":34.653927,"lng":135.4344189},
{"name":"osaka Namba Station","lat":34.6670718,"lng":135.5003607},
{"name":"osaka-Kyoikudai-mae Station","lat":34.55568,"lng":135.644635},
{"name":"osaka Uehommachi Station","lat":34.665526,"lng":135.519643},
{"name":"osakasayamashi Station","lat":34.5051,"lng":135.557144},
{"name":"Osamunai Station","lat":43.732506,"lng":142.129894},
{"name":"osakura Station","lat":34.7024854,"lng":135.4959506},
{"name":"Osashima Station","lat":44.738746,"lng":142.197544},
{"name":"osaka-Temmangu Station","lat":34.6973832,"lng":135.5131478},
{"name":"osaki Station","lat":35.620023,"lng":139.728188},
{"name":"osaki-Hirokoji Station","lat":35.6226336,"lng":139.7226662},
{"name":"osato Station","lat":35.226243,"lng":136.818481},
{"name":"Osatsunai Station","lat":43.473389,"lng":141.8399929},
{"name":"Osatsu Station","lat":42.852124,"lng":141.623107},
{"name":"Oshiage Station","lat":35.710332,"lng":139.8132971},
{"name":"osawa Station (Niigata)","lat":37.0212,"lng":138.821292},
{"name":"Oshibedani Station","lat":34.756699,"lng":135.039209},
{"name":"Oshamambe Station","lat":42.512791,"lng":140.375103},
{"name":"osawa Station (Yamagata)","lat":37.837395,"lng":140.200109},
{"name":"oshida Station","lat":38.59578399999999,"lng":140.375336},
{"name":"Oshikiri Station","lat":37.504757,"lng":138.881072},
{"name":"Oshikado Station","lat":39.723799,"lng":141.693198},
{"name":"Oshima Station","lat":34.0505846,"lng":134.1065502},
{"name":"oshima Station","lat":34.0505846,"lng":134.1065502},
{"name":"Oshima-Numajiri Station","lat":42.106797,"lng":140.7477029},
{"name":"Oshima-Tsuruoka Station","lat":41.670975,"lng":140.411401},
{"name":"Oshima-Tobetsu Station","lat":41.737391,"lng":140.5790729},
{"name":"Oshima-Sawara Station","lat":42.121975,"lng":140.6902195},
{"name":"Oshimi Station","lat":34.475941,"lng":135.731991},
{"name":"Oshino Station","lat":36.541865,"lng":136.622088},
{"name":"oshimizu Station","lat":34.695983,"lng":137.358731},
{"name":"oshio Station (Fukui)","lat":35.8663562,"lng":136.1657165},
{"name":"oshio Station (Hyogo)","lat":34.779384,"lng":134.757594},
{"name":"Oshironai Station","lat":42.111208,"lng":140.613382},
{"name":"Oshioe Station","lat":37.295547,"lng":140.430085},
{"name":"oshinozucho Station","lat":35.435346,"lng":139.618483},
{"name":"osho Station","lat":36.61953,"lng":137.2756549},
{"name":"Osokinai Station","lat":34.7024854,"lng":135.4959506},
{"name":"oshoji Station","lat":34.804266,"lng":135.4754468},
{"name":"osoneura Station","lat":34.0619939,"lng":136.2230552},
{"name":"osumi Station","lat":34.830762,"lng":135.749866},
{"name":"oshirakawa Station","lat":37.130199,"lng":140.21275},
{"name":"osugi Station","lat":33.76092,"lng":133.664418},
{"name":"osumi-Natsui Station","lat":31.469738,"lng":131.136454},
{"name":"osukannon Station","lat":35.159853,"lng":136.899698},
{"name":"osumi-Yokogawa Station","lat":31.906209,"lng":130.702925},
{"name":"ota Station (Gunma)","lat":36.292207,"lng":139.38067},
{"name":"Otabayashi Station","lat":36.300755,"lng":139.853566},
{"name":"osumi-okawara Station","lat":31.772812,"lng":130.924131},
{"name":"ota Station (Kagawa)","lat":34.2991041,"lng":134.0458682},
{"name":"otabe Station","lat":36.220339,"lng":138.487743},
{"name":"otago Station","lat":36.278233,"lng":139.959753},
{"name":"otagawa Station","lat":35.020601,"lng":136.892704},
{"name":"otaguchi Station","lat":33.7864612,"lng":133.725012},
{"name":"otagiri Station","lat":35.748156,"lng":137.940086},
{"name":"otake Station","lat":34.217754,"lng":132.223365},
{"name":"Otai Station","lat":35.221111,"lng":136.8805725},
{"name":"otaki Station (Chiba)","lat":35.286546,"lng":140.243853},
{"name":"otani Station (Shiga)","lat":34.994163,"lng":135.853601},
{"name":"otaki Station (Yamagata)","lat":38.971406,"lng":140.3201561},
{"name":"Otanoshike Station","lat":43.009345,"lng":144.27269},
{"name":"Otaru Station","lat":43.1976982,"lng":140.9936905},
{"name":"otaki-Onsen Station","lat":40.20977,"lng":140.6395941},
{"name":"otani Station (Wakayama)","lat":34.2987215,"lng":135.4941631},
{"name":"otemachi Station (Ehime)","lat":33.8399916,"lng":132.7553536},
{"name":"Otaruchikko Station","lat":43.180684,"lng":141.0283722},
{"name":"otemachi Station (Tokyo)","lat":35.6859658,"lng":139.7634162},
{"name":"otera Station","lat":35.404435,"lng":132.787639},
{"name":"oto Station","lat":35.890235,"lng":140.458393},
{"name":"otoba Station (Fukui)","lat":35.5043854,"lng":135.867002},
{"name":"otoba Station (Gifu)","lat":35.314977,"lng":136.597386},
{"name":"Otogawa Station","lat":34.937507,"lng":137.183182},
{"name":"Otoineppu Station","lat":44.729277,"lng":142.260011},
{"name":"Otobaru Station","lat":43.1976982,"lng":140.9936905},
{"name":"Otomaru Station","lat":36.511841,"lng":136.617673},
{"name":"Otome Station","lat":36.311355,"lng":138.440604},
{"name":"Otomo Station","lat":38.989306,"lng":141.699507},
{"name":"Otokoyama-sanjo Station","lat":34.88095,"lng":135.699869},
{"name":"otoshi Station","lat":34.146941,"lng":131.4328},
{"name":"Otoshibe Station","lat":42.187638,"lng":140.420951},
{"name":"otori Station","lat":35.552281,"lng":139.740162},
{"name":"Otozawa Station","lat":36.8404844,"lng":137.5599585},
{"name":"otorii Station","lat":35.552281,"lng":139.740162},
{"name":"Otowacho Station","lat":34.978366,"lng":138.395771},
{"name":"Otobashi Station","lat":35.147198,"lng":136.890867},
{"name":"otsuchi Station","lat":35.613447,"lng":138.94245},
{"name":"otsu Station","lat":35.003051,"lng":135.864572},
{"name":"otsuka Station","lat":35.7317847,"lng":139.7282266},
{"name":"otsuka-eki-mae Station","lat":35.73134659999999,"lng":139.728957},
{"name":"otsuka-Teikyodaigaku Station","lat":35.636957,"lng":139.416297},
{"name":"otsuki Station","lat":35.613447,"lng":138.94245},
{"name":"otsukyo Station","lat":35.023798,"lng":135.856461},
{"name":"otsuko Station","lat":35.613447,"lng":138.94245},
{"name":"otsumachi Station","lat":35.6859658,"lng":139.7634162},
{"name":"Ottomo Station","lat":40.780081,"lng":141.213152},
{"name":"ouchiyama Station","lat":35.0152307,"lng":135.6777439},
{"name":"otsuru Station","lat":35.7317847,"lng":139.7282266},
{"name":"oura Station","lat":33.9992461,"lng":132.7754704},
{"name":"ouchi Station","lat":33.2869255,"lng":132.6422824},
{"name":"owada Station (Hokkaido)","lat":43.913497,"lng":141.696367},
{"name":"Owada Station","lat":34.921087,"lng":138.082189},
{"name":"owada Station (Nara)","lat":34.589122,"lng":135.720377},
{"name":"owada Station (Osaka)","lat":34.742908,"lng":135.602521},
{"name":"owada Station (Saitama)","lat":35.9293709,"lng":139.6503306},
{"name":"owani Station","lat":40.521981,"lng":140.566695},
{"name":"owanionsen Station","lat":40.521981,"lng":140.566695},
{"name":"Owariasahi Station","lat":35.216888,"lng":137.03599},
{"name":"Owari-Ichinomiya Station","lat":35.301234,"lng":136.797814},
{"name":"Owari-Morioka Station","lat":34.993856,"lng":136.970421},
{"name":"Owari-Hoshinomiya Station","lat":35.212884,"lng":136.854978},
{"name":"Owari-Seto Station","lat":35.225201,"lng":137.0973218},
{"name":"Owari-Yokosuka Station","lat":35.010213,"lng":136.885789},
{"name":"Owase Station","lat":34.074725,"lng":136.1903122},
{"name":"oya Station (Gifu)","lat":35.63732,"lng":136.9502736},
{"name":"oya-Kaigan Station","lat":38.814267,"lng":141.567139},
{"name":"oya Station (Nagano)","lat":36.369706,"lng":138.296726},
{"name":"oyachi Station (Mie)","lat":35.022061,"lng":136.6336122},
{"name":"oyachi Station (Hokkaido)","lat":43.02793,"lng":141.453084},
{"name":"Oyahana Station","lat":36.077566,"lng":139.106306},
{"name":"Oyama Station","lat":35.748341,"lng":139.70263},
{"name":"oyama Station (Tokyo)","lat":35.748341,"lng":139.70263},
{"name":"Oyamada Station","lat":35.748341,"lng":139.70263},
{"name":"oyama Cable Station","lat":35.427865,"lng":139.244515},
{"name":"oyamazaki Station","lat":34.891531,"lng":135.681648},
{"name":"Oyanagi Station","lat":36.4711589,"lng":136.6115399},
{"name":"Oyashirazu Station","lat":37.00684,"lng":137.7381101},
{"name":"ozai Station","lat":33.243911,"lng":131.720411},
{"name":"Oyumino Station","lat":35.550265,"lng":140.166099},
{"name":"oyabu Station","lat":33.647403,"lng":130.79726},
{"name":"Oyamadai Station","lat":35.606967,"lng":139.65389},
{"name":"Ozaku Station","lat":35.77605,"lng":139.302274},
{"name":"ozawanai Station","lat":40.940371,"lng":140.437324},
{"name":"ozeki Station (Fukui)","lat":36.1866247,"lng":136.2039175},
{"name":"Ozaki Station","lat":35.620023,"lng":139.728188},
{"name":"Ozekiyama Station","lat":34.6664005,"lng":133.9186365},
{"name":"ozeki Station (Fukuoka)","lat":33.372375,"lng":130.624006},
{"name":"ozore Station","lat":35.1905204,"lng":137.8184657},
{"name":"ozone Station","lat":35.1914885,"lng":136.9368461},
{"name":"ozuka Station","lat":35.7317847,"lng":139.7282266},
{"name":"oyama Station (Kagoshima)","lat":31.194953,"lng":130.599174},
{"name":"Pippu Station","lat":43.874528,"lng":142.471215},
{"name":"Ozuki Station","lat":34.067803,"lng":131.032949},
{"name":"Port Town-higashi Station","lat":34.6309079,"lng":135.4291444},
{"name":"Port Town-nishi Station","lat":34.6309097,"lng":135.4228158},
{"name":"Port Terminal Station","lat":34.68135,"lng":135.202225},
{"name":"Raihai Station","lat":37.458979,"lng":138.663537},
{"name":"Raikoji Station","lat":37.397239,"lng":138.783585},
{"name":"oyamadera Station","lat":38.309597,"lng":140.434733},
{"name":"Rakutenchishita Station","lat":33.274977,"lng":131.485559},
{"name":"Rakusaiguchi Station","lat":34.9639439,"lng":135.7031408},
{"name":"Randen Tenjingawa Station","lat":35.0102471,"lng":135.7150942},
{"name":"Rakutenchiue Station","lat":33.274977,"lng":131.485559},
{"name":"Randen Saga Station","lat":35.0164641,"lng":135.6813795},
{"name":"Ranru Station","lat":43.925327,"lng":142.473378},
{"name":"Rakurakuen Station","lat":34.364296,"lng":132.351961},
{"name":"Rankoshi Station","lat":42.804538,"lng":140.528961},
{"name":"Ranshima Station","lat":43.1967745,"lng":140.8553193},
{"name":"Rebun Station","lat":42.580568,"lng":140.595107},
{"name":"Rendaiji Station","lat":34.69946600000001,"lng":138.941374},
{"name":"Rembo Station","lat":38.2511134,"lng":140.8930871},
{"name":"Reuke Station","lat":43.9048566,"lng":141.6111175},
{"name":"Resort Gateway Station","lat":35.635109,"lng":139.885286},
{"name":"Rifu Station","lat":38.329472,"lng":140.98474},
{"name":"Rikuchu-Kanzaki Station","lat":38.917106,"lng":141.251189},
{"name":"Rengeji Station","lat":35.059563,"lng":136.650863},
{"name":"Rikuchu-Matsukawa Station","lat":38.977238,"lng":141.23802},
{"name":"Rikuchu-Kawai Station","lat":39.597235,"lng":141.6816999},
{"name":"Rikuchu-Nakano Station","lat":40.30501599999999,"lng":141.787848},
{"name":"Rikuchu-Natsui Station","lat":40.207722,"lng":141.791825},
{"name":"Rikuchu-osato Station","lat":40.158531,"lng":140.793472},
{"name":"Rikuchu-ohashi Station","lat":39.280412,"lng":141.719047},
{"name":"Rikuchu-Noda Station","lat":40.116067,"lng":141.81905},
{"name":"Rikuchu-Yagi Station","lat":40.345455,"lng":141.766598},
{"name":"Rikuchu-Ube Station","lat":40.13237,"lng":141.785885},
{"name":"Rikuchu-Orii Station","lat":39.093944,"lng":141.141051},
{"name":"Rikuzen-Hamada Station","lat":38.3509492,"lng":141.0420762},
{"name":"Rikuzen-Akai Station","lat":38.432523,"lng":141.2389911},
{"name":"Rikuchu-Yamada Station","lat":39.463398,"lng":141.950961},
{"name":"Rikuzen-Haranomachi Station","lat":38.266144,"lng":140.910722},
{"name":"Rikuzen-Inai Station","lat":38.445469,"lng":141.334871},
{"name":"Rikuzen-Akasaki Station","lat":39.068576,"lng":141.741028},
{"name":"Rikuzen-Minato Station","lat":38.739198,"lng":141.5310284},
{"name":"Rikuzen-Koizumi Station","lat":38.765548,"lng":141.509174},
{"name":"Rikuzen-Ono Station","lat":38.395942,"lng":141.174609},
{"name":"Rikuzen-Hashikami Station","lat":38.837431,"lng":141.580275},
{"name":"Rikuzen-otsuka Station","lat":38.379248,"lng":141.1285859},
{"name":"Rikuzen-Ochiai Station","lat":38.27341699999999,"lng":140.789982},
{"name":"Rikuzen-Sanno Station","lat":38.29969699999999,"lng":140.97952},
{"name":"Rikuzen-Takasago Station","lat":38.273478,"lng":140.967578},
{"name":"Rikuzen-Shirasawa Station","lat":38.278025,"lng":140.702267},
{"name":"Rikuzen-Togura Station","lat":38.647754,"lng":141.4333529},
{"name":"Rikuzen-Tomiyama Station","lat":38.386441,"lng":141.107282},
{"name":"Rikuzen-Toyosato Station","lat":38.582284,"lng":141.243483},
{"name":"Rikuzen-Takata Station","lat":39.02782699999999,"lng":141.6246789},
{"name":"Rikuzen-Yachi Station","lat":38.56514,"lng":140.999478},
{"name":"Rikuzen-Yahagi Station","lat":39.0226555,"lng":141.5794509},
{"name":"Ringo Station","lat":38.057255,"lng":140.097969},
{"name":"Rikuzen-Yamashita Station","lat":38.437524,"lng":141.287903},
{"name":"Rikuzen-Yokoyama Station","lat":38.631018,"lng":141.3542027},
{"name":"Rinku-Tokoname Station","lat":34.87956,"lng":136.828132},
{"name":"Ritsurin Station","lat":34.33228,"lng":134.053671},
{"name":"Rinku Town Station","lat":34.410716,"lng":135.299559},
{"name":"Ritsurinkoen Kitaguchi Station","lat":34.334001,"lng":134.0417012},
{"name":"Rinkanden'entoshi Station","lat":34.355741,"lng":135.6034113},
{"name":"Ritto Station","lat":35.0376836,"lng":135.9803228},
{"name":"Ritsurinkoen Station","lat":34.3298328,"lng":134.0443524},
{"name":"Rokakoen Station","lat":35.670542,"lng":139.608224},
{"name":"Rokko Cable-shita Station","lat":34.737233,"lng":135.233442},
{"name":"Rokko Station","lat":34.719846,"lng":135.23436},
{"name":"Rokkomichi Station","lat":34.7149758,"lng":135.2385446},
{"name":"Rokucho Station","lat":35.784451,"lng":139.821702},
{"name":"Rokken Station (Mie)","lat":34.617638,"lng":136.50753},
{"name":"Rokken Station (Gifu)","lat":35.401057,"lng":136.861554},
{"name":"Rokkosanjo Station","lat":34.752009,"lng":135.236886},
{"name":"Rokubancho Station","lat":35.124117,"lng":136.888451},
{"name":"Rokumanji Station","lat":34.342614,"lng":134.134219},
{"name":"Rokuhara Station","lat":39.227816,"lng":141.09777},
{"name":"Rokugodote Station","lat":35.540531,"lng":139.707582},
{"name":"Rokujizo Station","lat":34.932835,"lng":135.797386},
{"name":"Rokugo Station","lat":34.836544,"lng":138.204182},
{"name":"Rokuchonome Station","lat":34.6790969,"lng":138.944373},
{"name":"Rokutanji Station","lat":33.2619515,"lng":133.169446},
{"name":"Rokuwa Station","lat":35.202188,"lng":136.729101},
{"name":"Rokuoin Station","lat":35.016962,"lng":135.685615},
{"name":"Rokujo Station","lat":36.0280631,"lng":136.2396333},
{"name":"Roppongi Station","lat":35.6628656,"lng":139.7315065},
{"name":"Ropeway Iriguchi Station","lat":43.033564,"lng":141.337261},
{"name":"Rubeshibe Station","lat":43.7856149,"lng":143.6220981},
{"name":"Roppongi-itchome Station","lat":35.6659738,"lng":139.7385171},
{"name":"Ropponmatsu Station","lat":33.5778651,"lng":130.3773227},
{"name":"Ryoanji Station","lat":35.027795,"lng":135.721251},
{"name":"Ryoishi Station","lat":39.308303,"lng":141.889003},
{"name":"Ryogoku Station","lat":35.6950363,"lng":139.7938328},
{"name":"Ryokuentoshi Station","lat":35.4395193,"lng":139.5219504},
{"name":"Ryori Station","lat":39.054218,"lng":141.799245},
{"name":"Rumoi Station","lat":43.94262519999999,"lng":141.6521482},
{"name":"Ryokuchikoen Station","lat":34.77558920000001,"lng":135.4954052},
{"name":"Ryugamizu Station","lat":31.64751399999999,"lng":130.60433},
{"name":"Ryumai Station","lat":36.278829,"lng":139.409078},
{"name":"Ryugasaki Station","lat":35.908558,"lng":140.178888},
{"name":"Ryuo Station","lat":35.668708,"lng":138.519373},
{"name":"Ryuokyo Station","lat":36.860966,"lng":139.718499},
{"name":"Sabane Station","lat":39.711146,"lng":141.936339},
{"name":"Sabae Station","lat":35.9433361,"lng":136.1887077},
{"name":"Sabaishi Station","lat":34.577674,"lng":135.498591},
{"name":"Sabase Station","lat":33.6462333,"lng":134.3853058},
{"name":"Ryutsu Center Station","lat":35.5818736,"lng":139.7490083},
{"name":"Sadamitsu Station","lat":34.0393952,"lng":134.0587079},
{"name":"Sachiura Station","lat":35.358383,"lng":139.64365},
{"name":"Sadori Station","lat":39.801844,"lng":140.5860359},
{"name":"Saeki-Kuyakushomae Station","lat":34.365463,"lng":132.361682},
{"name":"Sadowara Station","lat":32.0223935,"lng":131.477166},
{"name":"Saga Station","lat":33.2641964,"lng":130.2974303},
{"name":"Saga-Arashiyama Station","lat":35.0187568,"lng":135.6811971},
{"name":"Saga-Koen Station","lat":33.064265,"lng":133.106182},
{"name":"Sagami-Kaneko Station","lat":35.33373400000001,"lng":139.150582},
{"name":"Sagamihara Station","lat":35.5814777,"lng":139.3707251},
{"name":"Sagae Station","lat":38.3792456,"lng":140.26685},
{"name":"Sagamiko Station","lat":35.61737,"lng":139.188512},
{"name":"Sagamino Station","lat":35.4715591,"lng":139.4285296},
{"name":"Sagami-Numata Station","lat":35.292322,"lng":139.133891},
{"name":"Sagami-otsuka Station","lat":35.470563,"lng":139.4408415},
{"name":"Sagami-ono Station","lat":35.53222,"lng":139.437828},
{"name":"Sagoshi Station","lat":38.89518,"lng":139.907474},
{"name":"Sagarahan-Ganjoji Station","lat":32.218398,"lng":130.769662},
{"name":"Saginuma Station","lat":35.5797753,"lng":139.573327},
{"name":"Saginomiya Station (Shizuoka)","lat":34.7575135,"lng":137.7574686},
{"name":"Saginomiya Station (Tokyo)","lat":35.72262,"lng":139.639886},
{"name":"Saigane Station","lat":36.695614,"lng":140.386421},
{"name":"Saidaiji Station","lat":34.6938002,"lng":135.7826359},
{"name":"Saigata Station","lat":37.210081,"lng":138.304857},
{"name":"Sai Station","lat":35.0033807,"lng":135.7338655},
{"name":"Saidosho Station","lat":33.707313,"lng":130.853087},
{"name":"Saigo Station","lat":32.872897,"lng":130.243997},
{"name":"Saichi Station","lat":38.853374,"lng":141.581274},
{"name":"Saijo Station","lat":34.431407,"lng":132.743896},
{"name":"Saigawa Station","lat":35.6284713,"lng":139.7387597},
{"name":"Saiin Station","lat":35.00338,"lng":135.7316923},
{"name":"Saiki Station","lat":32.972306,"lng":131.901847},
{"name":"Saiku Station","lat":34.537871,"lng":136.615218},
{"name":"Saimyoji Station","lat":39.653139,"lng":140.56299},
{"name":"Saiwai Station","lat":32.83712,"lng":130.066792},
{"name":"Saishunsomae Station","lat":36.2255459,"lng":139.5271649},
{"name":"Saitozaki Station","lat":33.650366,"lng":130.358161},
{"name":"Saitama-Shintoshin Station","lat":35.893795,"lng":139.633741},
{"name":"Saito-Nishi Station","lat":34.8552406,"lng":135.5228743},
{"name":"Saka Station","lat":34.581006,"lng":135.467816},
{"name":"Sakabe Station","lat":34.941,"lng":136.91665},
{"name":"Sakado Station (Fukuoka)","lat":33.602457,"lng":130.486456},
{"name":"Sakado Station (Ibaraki)","lat":36.15588,"lng":140.4858},
{"name":"Sakae Station (Aichi)","lat":35.1700475,"lng":136.9085322},
{"name":"Sakado Station (Saitama)","lat":35.957115,"lng":139.394259},
{"name":"Sakae Station (Hyogo)","lat":34.755255,"lng":135.05643},
{"name":"Sakae Station (Okayama)","lat":34.537917,"lng":133.744997},
{"name":"Sakai Station","lat":34.581006,"lng":135.467816},
{"name":"Sakaecho Station (Tokyo)","lat":35.75087,"lng":139.742182},
{"name":"Sakaecho Station (Chiba)","lat":35.61284,"lng":140.1186},
{"name":"Sakaemachi Station (Hokkaido)","lat":43.113139,"lng":141.367059},
{"name":"Sakaemachi Station (Aichi)","lat":35.170529,"lng":136.908809},
{"name":"Sakahogi Station","lat":35.426391,"lng":136.976821},
{"name":"Sakaida Station","lat":38.735525,"lng":140.612725},
{"name":"Sakaibashi Station","lat":35.6974168,"lng":139.7844566},
{"name":"Sakaide Station","lat":34.313167,"lng":133.856717},
{"name":"Sakaimachi Station","lat":36.277158,"lng":139.256202},
{"name":"Sakaishi Station","lat":34.577674,"lng":135.498591},
{"name":"Sakai-Higashi Station","lat":34.5754642,"lng":135.4848148},
{"name":"Sakaimatsu Station","lat":34.3505026,"lng":134.045566},
{"name":"Sakaiminato Station","lat":35.544456,"lng":133.223012},
{"name":"Sakaisuji-Hommachi Station","lat":34.6818255,"lng":135.5069763},
{"name":"Sakaki Station","lat":36.4623876,"lng":138.1812567},
{"name":"Sakakami Station","lat":36.327841,"lng":137.1409289},
{"name":"Sakamachi Station","lat":38.11925799999999,"lng":139.445801},
{"name":"Sakakita Station","lat":36.430663,"lng":138.015692},
{"name":"Sakakibara-Onsenguchi Station","lat":34.674738,"lng":136.348736},
{"name":"Sakamoto Station (Shiga)","lat":35.07071,"lng":135.871319},
{"name":"Sakamoto Station (Miyagi)","lat":37.9285491,"lng":140.9125523},
{"name":"Sakane Station","lat":34.9730485,"lng":133.3707317},
{"name":"Sakaori Station","lat":35.659683,"lng":138.599339},
{"name":"Sakamoto Station (Kumamoto)","lat":32.435121,"lng":130.658027},
{"name":"Sakanoue Station","lat":31.500251,"lng":130.507675},
{"name":"Sakasai Station","lat":35.823257,"lng":139.983742},
{"name":"Sakanoichi Station","lat":35.776716,"lng":140.315855},
{"name":"Sakasegawa Station","lat":34.797173,"lng":135.350736},
{"name":"Sakari Station","lat":39.085517,"lng":141.710807},
{"name":"Sakashita Station","lat":35.574221,"lng":137.531073},
{"name":"Sakata Station (Yamagata)","lat":38.922231,"lng":139.845895},
{"name":"Sakata Station (Shiga)","lat":35.335745,"lng":136.287801},
{"name":"Sakihana Station","lat":37.734992,"lng":139.291054},
{"name":"Sakawa Station","lat":33.500164,"lng":133.292764},
{"name":"Sakiyama Station","lat":33.636184,"lng":130.917861},
{"name":"Sakimori Station","lat":42.373964,"lng":140.9273099},
{"name":"Sakidaira Station","lat":35.091707,"lng":138.127429},
{"name":"Sako Station","lat":35.18386,"lng":136.873033},
{"name":"Sako Station","lat":35.18386,"lng":136.873033},
{"name":"Sakkuru Station","lat":35.709554,"lng":140.225976},
{"name":"Sakogi Station","lat":35.119476,"lng":136.752269},
{"name":"Sakoshi Station","lat":34.7688396,"lng":134.4176412},
{"name":"Saku Station","lat":44.744074,"lng":142.048585},
{"name":"Sakugiguchi Station","lat":35.4509493,"lng":139.6310663},
{"name":"Sakudaira Station","lat":36.277859,"lng":138.463909},
{"name":"Sakuma Station","lat":35.0921139,"lng":137.8102493},
{"name":"Saku-Hirose Station","lat":36.003698,"lng":138.51936},
{"name":"Sakura Station (Aichi)","lat":35.106204,"lng":136.934642},
{"name":"Sakura Station (Chiba)","lat":35.709554,"lng":140.225976},
{"name":"Sakunami Station","lat":38.317796,"lng":140.632382},
{"name":"Sakura Station (Mie)","lat":34.9965117,"lng":136.5419555},
{"name":"Sakurabashi Station (Shizuoka)","lat":35.013058,"lng":138.477568},
{"name":"Sakurabashi Station (Toyama)","lat":36.694696,"lng":137.215891},
{"name":"Sakuradamon Station","lat":35.67729500000001,"lng":139.751379},
{"name":"Sakuradai Station (Tokyo)","lat":35.738702,"lng":139.662384},
{"name":"Sakuragaoka Station","lat":35.450729,"lng":139.465773},
{"name":"Sakuragicho Station","lat":35.4509493,"lng":139.6310663},
{"name":"Sakuragawa Station (Shiga)","lat":35.06494,"lng":136.187625},
{"name":"Sakuradai Station (Fukuoka)","lat":33.471807,"lng":130.542205},
{"name":"Sakuragawa Station (Osaka)","lat":34.6684262,"lng":135.488266},
{"name":"Sakuragi Station (Chiba)","lat":35.631394,"lng":140.160985},
{"name":"Sakuragi Station (Shizuoka)","lat":34.7783029,"lng":137.9729389},
{"name":"Sakurahommachi Station","lat":35.1089535,"lng":136.9367557},
{"name":"Sakurai Station (Nara)","lat":34.5131805,"lng":135.846732},
{"name":"Sakurai Station (Aichi)","lat":34.9179685,"lng":137.0884003},
{"name":"Sakurai Station (Osaka)","lat":34.8167674,"lng":135.4606902},
{"name":"Sakurajosui Station","lat":35.667626,"lng":139.631445},
{"name":"Sakurajima Station","lat":34.662024,"lng":135.432178},
{"name":"Sakurakaido Station","lat":35.4509493,"lng":139.6310663},
{"name":"Sakuramachi Station (Nagano)","lat":35.522179,"lng":137.829744},
{"name":"Sakuramachimae Station","lat":34.88026000000001,"lng":137.062417},
{"name":"Sakuramachi Station (Nagasaki)","lat":32.750654,"lng":129.876339},
{"name":"Sakuranomiya Station","lat":34.7051511,"lng":135.5218174},
{"name":"Sakuramizu Station","lat":37.7960344,"lng":140.4411086},
{"name":"Sakuraoka Station","lat":43.801759,"lng":142.486801},
{"name":"Sakurambo Higashine Station","lat":38.428415,"lng":140.380816},
{"name":"Sakurasawa Station","lat":34.6684262,"lng":135.488266},
{"name":"Sakura-Shinmachi Station","lat":35.6318735,"lng":139.6450254},
{"name":"Sakura Shukugawa Station","lat":34.738902,"lng":135.33115},
{"name":"Sakurazaka Station","lat":33.5772389,"lng":130.3869739},
{"name":"Sakurayama Station","lat":35.140005,"lng":136.93328},
{"name":"Sakurazawa Station","lat":36.128674,"lng":139.207351},
{"name":"Sambashidori-Gochome Station","lat":33.5404756,"lng":133.5527511},
{"name":"Samani Station","lat":42.127949,"lng":142.936088},
{"name":"Sakusabe Station","lat":35.625449,"lng":140.115461},
{"name":"Saku-Uminokuchi Station","lat":36.021278,"lng":138.490667},
{"name":"Sambashi-Shakomae Station","lat":33.5418164,"lng":133.551926},
{"name":"Sakyoyama Station","lat":35.070486,"lng":136.960419},
{"name":"Sambommatsuguchi Station","lat":35.446109,"lng":133.323033},
{"name":"Same Station","lat":40.530288,"lng":141.554912},
{"name":"Sambommatsu Station (Nara)","lat":34.578603,"lng":136.035794},
{"name":"Sambommatsu Station (Kagawa)","lat":34.2515681,"lng":134.3344662},
{"name":"Samizo Station","lat":36.212657,"lng":137.891267},
{"name":"Samitagawa Station","lat":34.6684262,"lng":135.488266},
{"name":"Samegai Station","lat":35.32772,"lng":136.345185},
{"name":"Samezu Station","lat":35.605025,"lng":139.742438},
{"name":"Sammaibashi Station","lat":34.6750572,"lng":135.5003772},
{"name":"Sammi Station","lat":34.3973293,"lng":131.3302894},
{"name":"Sana Station","lat":34.47846,"lng":136.539004},
{"name":"Samuraihama Station","lat":40.261576,"lng":141.760492},
{"name":"Samukawa Station","lat":35.36782,"lng":139.387311},
{"name":"Sanage Station","lat":35.12193,"lng":137.178704},
{"name":"Sanagu Station","lat":34.804219,"lng":136.163164},
{"name":"Sangane Station","lat":34.8356865,"lng":137.1772595},
{"name":"Sangenjaya Station","lat":35.6436167,"lng":139.6714011},
{"name":"Sangamori Station","lat":33.834824,"lng":130.736177},
{"name":"Sanda-Hommachi Station","lat":34.888521,"lng":135.230438},
{"name":"Sanda Station","lat":34.8884276,"lng":135.2297544},
{"name":"Sango Station (Aichi)","lat":35.216365,"lng":137.0521105},
{"name":"Sango Station (Nara)","lat":34.588871,"lng":135.687463},
{"name":"Sangubashi Station","lat":35.678599,"lng":139.693606},
{"name":"Sangyo-doro Station","lat":35.536727,"lng":139.740635},
{"name":"Sanjo Station (Kagawa)","lat":34.3197429,"lng":134.0494721},
{"name":"Sanjo Station (Niigata)","lat":37.620945,"lng":138.9605665},
{"name":"Sanjo Station (Fukuoka)","lat":33.846673,"lng":130.795171},
{"name":"Sangyo Shinko Center Station","lat":35.353384,"lng":139.646317},
{"name":"Sanjo Station (Kyoto)","lat":35.0088586,"lng":135.7721723},
{"name":"Sanjo-Keihan Station","lat":35.00816,"lng":135.7728},
{"name":"Sannohe Station","lat":40.395684,"lng":141.273139},
{"name":"Sannomiya Station","lat":34.6944749,"lng":135.1951944},
{"name":"Sanjuhassha Station","lat":35.98914,"lng":136.1936471},
{"name":"Sannomiya Station (JR West)","lat":34.6944749,"lng":135.1951944},
{"name":"Sanno Station (Aichi)","lat":35.1526361,"lng":136.8885184},
{"name":"Sannomiya-Hanadokeimae Station","lat":34.6917986,"lng":135.1958856},
{"name":"Sano Station","lat":36.3167377,"lng":139.5788563},
{"name":"Sanno Station (Fukui)","lat":36.07929,"lng":136.3923688},
{"name":"Sanonowatashi Station","lat":36.3026299,"lng":139.0183462},
{"name":"Sanoshi Station","lat":36.30633,"lng":139.575951},
{"name":"Sanriku Station","lat":39.117294,"lng":141.809964},
{"name":"Sanrigi Station","lat":32.8618541,"lng":130.7970748},
{"name":"Sanukimachi Station","lat":35.2606,"lng":139.8760819},
{"name":"Sansai Station","lat":36.6857627,"lng":138.2429812},
{"name":"Sanroku Station (Fukuoka)","lat":33.5902414,"lng":130.4212219},
{"name":"Sanuki-Aioi Station","lat":34.2119989,"lng":134.4245284},
{"name":"Sanuki Station","lat":35.9300659,"lng":140.1382285},
{"name":"Sanuki-Fuchu Station","lat":34.2916104,"lng":133.9233191},
{"name":"Sanuki-Mure Station","lat":34.3365294,"lng":134.1475249},
{"name":"Sanuki-Shirotori Station","lat":34.2436538,"lng":134.366224},
{"name":"Sanuki-Saida Station","lat":34.1174717,"lng":133.8142944},
{"name":"Sanyo Aboshi Station","lat":34.787101,"lng":134.588248},
{"name":"Sanuki-Shioya Station","lat":34.28528,"lng":133.777808},
{"name":"Sanyo Himeji Station","lat":34.8288657,"lng":134.6893868},
{"name":"Sanuki-Tsuda Station","lat":34.2884099,"lng":134.2481345},
{"name":"Sanyo-Joshidaimae Station","lat":34.362018,"lng":132.341267},
{"name":"Sanyo Akashi Station","lat":34.8288657,"lng":134.6893868},
{"name":"Sanyo Sone Station","lat":34.775468,"lng":134.773093},
{"name":"Sanyo Shioya Station","lat":34.6336871,"lng":135.082494},
{"name":"Sanyo Suma Station","lat":34.643602,"lng":135.112678},
{"name":"Sanyo Tarumi Station","lat":34.629538,"lng":135.0535492},
{"name":"Sanyo Temma Station","lat":34.796351,"lng":134.617384},
{"name":"Sanyo Uozumi Station","lat":34.689259,"lng":134.901973},
{"name":"Sappinai Station","lat":43.370815,"lng":141.742647},
{"name":"Sanze Station","lat":38.699391,"lng":139.673504},
{"name":"Sapporo Station","lat":43.0686606,"lng":141.3507553},
{"name":"Sapporo Station (Sapporo Municipal Subway)","lat":43.0655524,"lng":141.3508145},
{"name":"Sapporo Beer Teien Station","lat":42.866927,"lng":141.6053579},
{"name":"Sari Station","lat":33.337617,"lng":129.978704},
{"name":"Sapporo Kamotsu Terminal Station","lat":43.0686606,"lng":141.3507553},
{"name":"Saruda Station","lat":35.747425,"lng":140.73732},
{"name":"Sarayama Station","lat":35.032032,"lng":133.960823},
{"name":"Saruhashi Station","lat":35.612893,"lng":138.968698},
{"name":"Saruiwa Station","lat":33.445938,"lng":129.968507},
{"name":"Sasabara Station","lat":35.1547753,"lng":137.1206721},
{"name":"Sasabaru Station","lat":33.55258,"lng":130.4490563},
{"name":"Saruwada Station","lat":37.72963,"lng":139.222393},
{"name":"Sasabe Station","lat":34.893747,"lng":135.416032},
{"name":"Sasaharada Station","lat":36.533737,"lng":140.145143},
{"name":"Sasago Station","lat":35.603862,"lng":138.825044},
{"name":"Sasagawa Station","lat":35.839385,"lng":140.655823},
{"name":"Sasaki Station","lat":37.949744,"lng":139.270018},
{"name":"Sasaguri Station","lat":33.6239157,"lng":130.5248158},
{"name":"Sasakino Station","lat":43.055451,"lng":141.353314},
{"name":"Sasebo Station","lat":33.1639245,"lng":129.7256458},
{"name":"Sasazuka Station","lat":35.673654,"lng":139.667136},
{"name":"Sasayamaguchi Station","lat":35.0562589,"lng":135.1776601},
{"name":"Sasazu Station","lat":36.561461,"lng":137.2114521},
{"name":"Sasaya Station","lat":37.787352,"lng":140.439701},
{"name":"Sasebo-Chuo Station","lat":33.170937,"lng":129.720537},
{"name":"Sashiki Station","lat":32.3025273,"lng":130.4971222},
{"name":"Sashimaki Station","lat":39.668585,"lng":140.691978},
{"name":"Sashiu Station","lat":33.174837,"lng":131.817626},
{"name":"Sasashima-raibu Station","lat":35.1616509,"lng":136.8816015},
{"name":"Sato Station","lat":33.284648,"lng":129.835746},
{"name":"Sashiogi Station","lat":35.91693,"lng":139.56494},
{"name":"Satomi Station","lat":35.33726,"lng":140.145526},
{"name":"Satoshiraishi Station","lat":37.104457,"lng":140.416706},
{"name":"Satsu Station","lat":35.65316,"lng":134.6856438},
{"name":"Satsu Station","lat":35.65316,"lng":134.6856438},
{"name":"Satsukari Station","lat":41.699309,"lng":140.46828},
{"name":"Satosho Station","lat":34.507749,"lng":133.550516},
{"name":"Satsueisho-mae Station","lat":35.015837,"lng":135.7028455},
{"name":"Satsukino Station","lat":43.055451,"lng":141.353314},
{"name":"Satsuma-Kawashiri Station","lat":31.1948075,"lng":130.5656498},
{"name":"Satsuma-Imaizumi Station","lat":31.290693,"lng":130.598894},
{"name":"Satsuma-Matsumoto Station","lat":31.605294,"lng":130.438901},
{"name":"Satsukidai Station","lat":35.66788,"lng":139.772516},
{"name":"Satsuma-okawa Station","lat":31.949223,"lng":130.218967},
{"name":"Satsuma-Itashiki Station","lat":31.262358,"lng":130.330946},
{"name":"Satsuma-Shioya Station","lat":31.257109,"lng":130.376109},
{"name":"Satsunai Station","lat":42.912643,"lng":143.256177},
{"name":"Satteki Station","lat":43.419116,"lng":141.803583},
{"name":"Satsuma-Taki Station","lat":31.892313,"lng":130.220552},
{"name":"Satte Station","lat":36.074555,"lng":139.714949},
{"name":"Sawadani Station","lat":35.057972,"lng":132.634664},
{"name":"Sawa Station (Nagano)","lat":35.936303,"lng":137.985409},
{"name":"Sattsuru Station","lat":43.7865567,"lng":144.5317481},
{"name":"Sawa Station (Ibaraki)","lat":36.430482,"lng":140.540503},
{"name":"Sawada Station","lat":38.432333,"lng":141.382312},
{"name":"Sawabe Station","lat":40.5859865,"lng":139.8955368},
{"name":"Sawai Station","lat":35.8058669,"lng":139.1938474},
{"name":"Sawanakayama Station","lat":34.231917,"lng":135.1911799},
{"name":"Sawama Station","lat":35.124676,"lng":138.134343},
{"name":"Sawajiri Station","lat":40.230352,"lng":140.693283},
{"name":"Sawame Station","lat":40.295991,"lng":140.0376709},
{"name":"Sawanocho Station","lat":34.606254,"lng":135.49684},
{"name":"Sawando Station","lat":35.8041565,"lng":137.9439054},
{"name":"Saya Station","lat":35.147555,"lng":136.71666},
{"name":"Sawara Station","lat":35.89506799999999,"lng":140.493557},
{"name":"Sayama Station","lat":34.516821,"lng":135.548172},
{"name":"Sayamagaoka Station","lat":35.810382,"lng":139.417013},
{"name":"Sayamashi Station","lat":35.857071,"lng":139.413233},
{"name":"Sawaragi Station","lat":34.7930094,"lng":135.565642},
{"name":"Sayo Station","lat":35.0040761,"lng":134.3568784},
{"name":"Seba Station","lat":36.087117,"lng":137.91677},
{"name":"Screen Station","lat":35.232673,"lng":136.26814},
{"name":"Saza Station","lat":33.236734,"lng":129.646875},
{"name":"Segoshi Station","lat":43.9354694,"lng":141.6347108},
{"name":"Sechigo Station","lat":34.989411,"lng":135.767665},
{"name":"Seibijo Station","lat":35.555087,"lng":139.753356},
{"name":"Seheji Station","lat":41.007703,"lng":140.648134},
{"name":"Seiaichuko-mae Station","lat":40.5771863,"lng":140.4727011},
{"name":"Seibu Chichibu Station","lat":35.990047,"lng":139.083062},
{"name":"Seibuen Station","lat":35.6953874,"lng":139.7000494},
{"name":"Seibu-Kyujo-mae Station","lat":35.7704755,"lng":139.4190801},
{"name":"Seibu Shinjuku Station","lat":35.6953874,"lng":139.7000494},
{"name":"Seibu Tachikawa Station","lat":35.7262639,"lng":139.3705792},
{"name":"Seihama Station","lat":35.6360645,"lng":139.883557},
{"name":"Seihokokomae Station","lat":33.24776000000001,"lng":129.656485},
{"name":"Seibu-Yuenchi Station","lat":35.765749,"lng":139.442707},
{"name":"Seibu Yagisawa Station","lat":35.728617,"lng":139.552393},
{"name":"Seijogakuen-Mae Station","lat":35.640128,"lng":139.599087},
{"name":"Seikibashi Station","lat":35.7029293,"lng":139.7555605},
{"name":"Seimei Station","lat":36.0222908,"lng":136.2094046},
{"name":"Seiwagakuenmae Station","lat":35.640128,"lng":139.599087},
{"name":"Seiseki-Sakuragaoka Station","lat":35.65079,"lng":139.446933},
{"name":"Seishugakuenmae Station","lat":43.038287,"lng":141.35101},
{"name":"Sekigahara Station","lat":35.36380200000001,"lng":136.470368},
{"name":"Seishin-Chuo Station","lat":38.2601316,"lng":140.8824375},
{"name":"Seishin-Minami Station","lat":34.699177,"lng":135.030295},
{"name":"Seki Station (Mie)","lat":34.8491823,"lng":136.3945435},
{"name":"Sekigawa Station","lat":33.955809,"lng":133.392741},
{"name":"Seki Station (Gifu)","lat":35.490021,"lng":136.912963},
{"name":"Sekiguchi Station","lat":35.4800358,"lng":136.9288551},
{"name":"Sekijujibyoinmae Station","lat":33.84797500000001,"lng":132.772938},
{"name":"Sekijujimae Station","lat":36.0486163,"lng":136.2166771},
{"name":"Sekime Station","lat":34.712632,"lng":135.546971},
{"name":"Sekime-Seiiku Station","lat":34.712632,"lng":135.546971},
{"name":"Sekine Station","lat":37.864612,"lng":140.14614},
{"name":"Sekime-Takadono Station","lat":34.7152756,"lng":135.5463458},
{"name":"Sekinomiya Station","lat":35.72262,"lng":139.639886},
{"name":"Sekishi Station","lat":34.20935559999999,"lng":135.3121019},
{"name":"Seki-Shiyakushomae Station","lat":35.49921399999999,"lng":136.912796},
{"name":"Seki-Shimouchi Station","lat":35.5136755,"lng":136.914605},
{"name":"Sekito Station","lat":37.5157524,"lng":140.1436602},
{"name":"Seki-Tomioka Station","lat":35.4785943,"lng":136.9451469},
{"name":"Sekiya Station (Niigata)","lat":37.906076,"lng":139.0150979},
{"name":"Sekiya Station (Nara)","lat":34.5537816,"lng":135.6679277},
{"name":"Sekiyama Station","lat":36.933053,"lng":138.2264032},
{"name":"Sembayashi Station","lat":34.7243486,"lng":135.5548716},
{"name":"Sembayashi-omiya Station","lat":34.7239032,"lng":135.5491544},
{"name":"Sembon Station","lat":34.94247,"lng":134.494334},
{"name":"Semine Station","lat":38.65552,"lng":141.0738},
{"name":"Semi-Onsen Station","lat":38.755239,"lng":140.419825},
{"name":"Sembokucho Station","lat":39.687624,"lng":141.148826},
{"name":"Senda Station","lat":34.241762,"lng":135.245625},
{"name":"Sencho Station","lat":32.5328415,"lng":130.6457391},
{"name":"Sendagi Station","lat":35.725762,"lng":139.763348},
{"name":"Sendagaya Station","lat":35.68121,"lng":139.711548},
{"name":"Sempukuji Station","lat":33.205266,"lng":129.726952},
{"name":"Sendaifuto Station","lat":38.2601316,"lng":140.8824375},
{"name":"Sendai Airport Station","lat":38.137243,"lng":140.929504},
{"name":"Sendai Station (Kagoshima)","lat":31.81339849999999,"lng":130.3123425},
{"name":"Sendai Station (Miyagi)","lat":38.2601316,"lng":140.8824375},
{"name":"Sendaira Station","lat":36.2302672,"lng":138.7988271},
{"name":"Sendaiko Station","lat":38.2601316,"lng":140.8824375},
{"name":"Sendai-Kitako Station","lat":38.2601316,"lng":140.8824375},
{"name":"Sengakuji Station","lat":35.638132,"lng":139.739714},
{"name":"Sengencho Station","lat":35.183527,"lng":136.890338},
{"name":"Sengawa Station","lat":35.66232,"lng":139.58506},
{"name":"Sengendai Station","lat":35.935878,"lng":139.774505},
{"name":"Sendai-Nishiko Station","lat":38.2601316,"lng":140.8824375},
{"name":"Senjo Station","lat":33.465428,"lng":132.457311},
{"name":"Sengoku Station","lat":35.7278755,"lng":139.7448665},
{"name":"Senmaya Station","lat":38.9243882,"lng":141.3459092},
{"name":"Senjojiki Station","lat":40.767741,"lng":140.0549791},
{"name":"Senju-ohashi Station","lat":35.742372,"lng":139.797261},
{"name":"Seno Station","lat":34.421951,"lng":132.5966463},
{"name":"Senkawa Station","lat":35.738092,"lng":139.689437},
{"name":"Senoo Station","lat":34.608273,"lng":133.871345},
{"name":"Senoue Station","lat":37.80238,"lng":140.498557},
{"name":"Senryugataki Station","lat":33.280646,"lng":129.683537},
{"name":"Senri-Chuo Station","lat":34.8098179,"lng":135.4949698},
{"name":"Senrioka Station","lat":34.791373,"lng":135.551663},
{"name":"Senriyama Station","lat":34.779179,"lng":135.505417},
{"name":"Sentoku Station","lat":39.632377,"lng":141.911817},
{"name":"Senzaki Station","lat":34.3879943,"lng":131.1988912},
{"name":"Senzai Station","lat":34.6010013,"lng":135.8165235},
{"name":"Senzoku Station","lat":35.6104125,"lng":139.6943984},
{"name":"Seppu Station","lat":42.38236800000001,"lng":142.2757431},
{"name":"Senzoku-Ike Station","lat":35.5998609,"lng":139.6914364},
{"name":"Senzu Station","lat":35.1081014,"lng":138.1377274},
{"name":"Serada Station","lat":36.2729853,"lng":139.281215},
{"name":"Sesekushi Station","lat":31.421232,"lng":130.522703},
{"name":"Sessokyo-Onsen Station","lat":35.178755,"lng":138.185281},
{"name":"Setagaya Station","lat":35.6434634,"lng":139.6507137},
{"name":"Seta Station (Kumamoto)","lat":32.872576,"lng":130.913798},
{"name":"Seta Station (Shiga)","lat":34.987193,"lng":135.925762},
{"name":"Setagaya-Daita Station","lat":35.65835,"lng":139.661581},
{"name":"Seto Station","lat":35.225201,"lng":137.0973218},
{"name":"Setoguchi Station","lat":35.2063653,"lng":137.0821895},
{"name":"Setaka Station","lat":33.157147,"lng":130.485385},
{"name":"Setose Station","lat":44.008683,"lng":143.420924},
{"name":"Setoshi Station","lat":35.2261197,"lng":137.0784954},
{"name":"Setoishi Station","lat":32.3716,"lng":130.645835},
{"name":"Settai Station","lat":39.80983,"lng":141.962359},
{"name":"Settsu-Motoyama Station","lat":34.7265437,"lng":135.2765428},
{"name":"Seto-Shiyakushomae Station","lat":35.225055,"lng":137.084153},
{"name":"Settsu Station","lat":34.7799436,"lng":135.5614034},
{"name":"Settsu-shi Station","lat":34.786674,"lng":135.5538922},
{"name":"Settsu-Tonda Station","lat":34.837313,"lng":135.59313},
{"name":"Seya Station","lat":35.47031390000001,"lng":139.4824961},
{"name":"Shaguma Station","lat":43.8692012,"lng":141.5800464},
{"name":"Seya-Kitaguchi Station","lat":34.6060146,"lng":135.7007265},
{"name":"Shake Station","lat":35.42042500000001,"lng":139.377171},
{"name":"Shakubetsu Station","lat":42.86911500000001,"lng":143.904233},
{"name":"Shibahashi Station","lat":38.380416,"lng":140.227692},
{"name":"Shakudo Station","lat":34.50852,"lng":135.72138},
{"name":"Shadai Station","lat":53.7983564,"lng":-1.5401896},
{"name":"Shibahira Station","lat":40.230716,"lng":140.787996},
{"name":"Shibahara Station","lat":34.8003706,"lng":135.4586023},
{"name":"Shibajuku Station","lat":35.6894072,"lng":139.7003058},
{"name":"Shibakawa Station","lat":35.19751189999999,"lng":138.5637377},
{"name":"Shibakoen Station","lat":35.6546433,"lng":139.750023},
{"name":"Shibamata Station","lat":35.7567161,"lng":139.8754798},
{"name":"Shibata Station (Aichi)","lat":35.07254,"lng":136.909173},
{"name":"Shibasaki-Taiikukan Station","lat":35.689784,"lng":139.409296},
{"name":"Shibasaki Station","lat":35.65398700000001,"lng":139.566617},
{"name":"Shibata Station (Niigata)","lat":37.944053,"lng":139.335096},
{"name":"Shibaura-futo Station","lat":35.642244,"lng":139.757824},
{"name":"Shibukawa Station","lat":36.491322,"lng":139.008798},
{"name":"Shibayama Station","lat":35.646393,"lng":134.663962},
{"name":"Shibayama-Chiyoda Station","lat":35.7540718,"lng":140.3995528},
{"name":"Shibecha Station","lat":43.2984652,"lng":144.6081669},
{"name":"Shibuki Station","lat":35.6580339,"lng":139.7016358},
{"name":"Shibun Station","lat":43.15884,"lng":141.7444101},
{"name":"Shibetsu Station","lat":44.1726283,"lng":142.3883077},
{"name":"Shibusawa Station","lat":35.374064,"lng":139.184411},
{"name":"Shibuya Station","lat":35.6580339,"lng":139.7016358},
{"name":"Shichijo Station","lat":34.989411,"lng":135.767665},
{"name":"Shibutami Station","lat":35.6580339,"lng":139.7016358},
{"name":"Shibushi Station","lat":31.473098,"lng":131.098346},
{"name":"Shichido Station","lat":34.592533,"lng":135.480926},
{"name":"Shichikenjaya Station","lat":34.472564,"lng":132.481112},
{"name":"Shichirigahama Station","lat":35.3062367,"lng":139.5101218},
{"name":"Shido Station","lat":34.3216071,"lng":134.1728524},
{"name":"Shichinohe-Towada Station","lat":40.720031,"lng":141.1537989},
{"name":"Shidai-igakubu Station","lat":35.343857,"lng":139.650095},
{"name":"Shigaraki Station","lat":34.8768713,"lng":136.0610059},
{"name":"Shiga Station","lat":35.202075,"lng":135.9246977},
{"name":"Shiga-hondori Station","lat":35.196249,"lng":136.921001},
{"name":"Shigarakigushi Station","lat":34.916038,"lng":136.088084},
{"name":"Shigasato Station","lat":35.04340699999999,"lng":135.858988},
{"name":"Shigehara Station","lat":34.994746,"lng":137.023749},
{"name":"Shigeno Station","lat":36.3426202,"lng":138.3635548},
{"name":"Shigeto Station","lat":33.680426,"lng":133.6898012},
{"name":"Shigeoka Station","lat":32.8406907,"lng":131.7157062},
{"name":"Shigetomi Station","lat":31.7031649,"lng":130.6145275},
{"name":"Shigino Station","lat":34.692773,"lng":135.545139},
{"name":"Shigeyasu Station","lat":34.194237,"lng":131.208652},
{"name":"Shigisanshita Station","lat":34.6010347,"lng":135.695011},
{"name":"Shigisanguchi Station","lat":34.6200299,"lng":135.6420985},
{"name":"Shii Station (JR Kyushu)","lat":33.803858,"lng":130.874749},
{"name":"Shigo Station","lat":35.0035617,"lng":135.7720094},
{"name":"Shiikoen Station","lat":33.818385,"lng":130.87972},
{"name":"Shii Station (Kitakyushu Monorail)","lat":33.822439,"lng":130.871388},
{"name":"Shiinamachi Station","lat":35.7264258,"lng":139.6950157},
{"name":"Shiida Station","lat":33.65349,"lng":131.057792},
{"name":"Shijima Station","lat":36.498814,"lng":136.615674},
{"name":"Shiizakai Station","lat":36.0979815,"lng":136.3111165},
{"name":"Shijimi Station","lat":34.782473,"lng":135.007572},
{"name":"Shijo Station","lat":35.0035617,"lng":135.7720094},
{"name":"Shiishiba Station","lat":35.3608848,"lng":139.629443},
{"name":"Shijo-omiya Station","lat":35.003215,"lng":135.748499},
{"name":"Shijonawate Station","lat":34.730438,"lng":135.639213},
{"name":"Shijomae Station","lat":35.645522,"lng":139.785627},
{"name":"Shikaga Station","lat":36.331824,"lng":139.455877},
{"name":"Shikabe Station","lat":42.0643739,"lng":140.7717477},
{"name":"Shikaka Station","lat":33.4843011,"lng":130.0475345},
{"name":"Shikama Station","lat":34.799685,"lng":134.675378},
{"name":"Shikanotani Station","lat":43.0395085,"lng":141.9644684},
{"name":"Shiki Station (Osaka)","lat":34.600146,"lng":135.615969},
{"name":"Shikenjo-mae Station","lat":33.301992,"lng":130.510018},
{"name":"Shikamura Station","lat":34.9965117,"lng":136.5419555},
{"name":"Shikaribetsu Station","lat":43.125395,"lng":140.736756},
{"name":"Shikijiki Station","lat":34.815779,"lng":132.712609},
{"name":"Shikauchi Station","lat":34.7512216,"lng":135.4248425},
{"name":"Shiki Station (Saitama)","lat":35.822163,"lng":139.575249},
{"name":"Shikiji Station","lat":35.66788,"lng":139.772516},
{"name":"Shikido Station","lat":33.18811,"lng":131.615172},
{"name":"Shikinosato Station","lat":34.6342984,"lng":135.4938021},
{"name":"Shikinami Station","lat":36.848083,"lng":136.773452},
{"name":"Shiku Station","lat":35.9909662,"lng":139.6224401},
{"name":"Shikishima Station","lat":35.664686,"lng":139.784432},
{"name":"Shimagahara Station","lat":34.767656,"lng":136.054164},
{"name":"Shimabara Station","lat":32.7902319,"lng":130.3706803},
{"name":"Shimada Station","lat":34.830155,"lng":138.173407},
{"name":"Shimabara-Gaiko Station","lat":32.7688117,"lng":130.3704734},
{"name":"Shima-Akasaki Station","lat":34.470079,"lng":136.842062},
{"name":"Shima-Isobe Station","lat":34.3699561,"lng":136.8054358},
{"name":"Shimamatsu Station","lat":34.7034086,"lng":137.7349545},
{"name":"Shimanokoshi Station","lat":39.9169234,"lng":141.9392634},
{"name":"Shimamoto Station","lat":34.880588,"lng":135.662705},
{"name":"Shimanoseki Station","lat":35.007773,"lng":135.870988},
{"name":"Shimanoshita Station","lat":43.3743973,"lng":142.3504585},
{"name":"Shimao Station","lat":36.828258,"lng":137.012709},
{"name":"Shimatetsu Yue Station","lat":32.85815,"lng":130.328324},
{"name":"Shima-Shimmei Station","lat":34.316151,"lng":136.829985},
{"name":"Shimata Station","lat":33.990525,"lng":131.960868},
{"name":"Shimatakamatsu Station","lat":36.2463283,"lng":137.9312669},
{"name":"Shimatetsu-honshamae Station","lat":32.782271,"lng":130.374182},
{"name":"Shima-Ujinaga Station","lat":35.2709672,"lng":136.8008605},
{"name":"Shimauchi Station","lat":36.246877,"lng":137.944817},
{"name":"Shimbaru Station","lat":33.579155,"lng":130.508733},
{"name":"Shimbamba Station","lat":35.6164519,"lng":139.7415409},
{"name":"Shima-Yokoyama Station","lat":35.5068084,"lng":139.6175767},
{"name":"Shimbashi Station","lat":35.6661933,"lng":139.7583319},
{"name":"Shiminbyoin-mae Station (Nagasaki)","lat":32.734473,"lng":129.8732926},
{"name":"Shimin-hiroba Station","lat":34.664873,"lng":135.2125214},
{"name":"Shimizu Station (Aichi)","lat":35.187139,"lng":136.913835},
{"name":"Shiminkoen-mae Station","lat":35.400557,"lng":136.841834},
{"name":"Shimizu Station (Osaka)","lat":34.7219642,"lng":135.5607799},
{"name":"Shimizu Station (Shizuoka)","lat":35.023335,"lng":138.489011},
{"name":"Shimizugawa Station","lat":35.6284713,"lng":139.7387597},
{"name":"Shimizuhara Station","lat":38.854944,"lng":141.156367},
{"name":"Shimizumachi Station","lat":35.023335,"lng":138.489011},
{"name":"Shimizukoen Station","lat":35.958794,"lng":139.860275},
{"name":"Shimizusawa Station","lat":42.997952,"lng":142.006896},
{"name":"Shimizuura Station","lat":34.9714699,"lng":138.389172},
{"name":"Shimmei Station (Fukui)","lat":35.972725,"lng":136.181843},
{"name":"Shimmachiguchi Station","lat":36.77898800000001,"lng":137.084121},
{"name":"Shimmachi Station (Gunma)","lat":36.2731351,"lng":139.1055107},
{"name":"Shimmei Station (Hokkaido)","lat":41.7342529,"lng":140.2657682},
{"name":"Shimmachi Station (Kumamoto)","lat":32.799775,"lng":130.697014},
{"name":"Shimmeicho Station","lat":35.670519,"lng":139.773599},
{"name":"Shimo-Amazu Station","lat":35.359409,"lng":135.111487},
{"name":"Shimmori-Furuichi Station","lat":34.7148224,"lng":135.5585996},
{"name":"Shimo-Akatsuka Station","lat":35.770476,"lng":139.644884},
{"name":"Shimo Station","lat":35.778422,"lng":139.732237},
{"name":"Shimo-Aso Station","lat":35.514967,"lng":137.087058},
{"name":"Shimobeonsen Station","lat":35.425956,"lng":138.47247},
{"name":"Shimodaira Station","lat":35.5724087,"lng":137.8959096},
{"name":"Shimoda Station","lat":40.59197,"lng":141.407589},
{"name":"Shimodate Station","lat":36.304147,"lng":139.978334},
{"name":"Shimodate-Nikomae Station","lat":36.319173,"lng":139.972083},
{"name":"Shimo-Fukawa Station","lat":34.48873,"lng":132.524608},
{"name":"Shimofunato Station","lat":39.038329,"lng":141.720864},
{"name":"Shimo-Fukaya Station","lat":35.0966213,"lng":136.6615358},
{"name":"Shimogori Station","lat":35.354978,"lng":140.055394},
{"name":"Shimogiri Station","lat":35.3933964,"lng":137.0638432},
{"name":"Shimo-Gion Station","lat":34.439345,"lng":132.462254},
{"name":"Shimo-Goshiro Station","lat":36.651545,"lng":139.713842},
{"name":"Shimohama Station","lat":39.619711,"lng":140.064536},
{"name":"Shimo-Hojo Station","lat":35.4820176,"lng":133.8088464},
{"name":"Shimoichi Station","lat":35.51877200000001,"lng":133.566565},
{"name":"Shimohyogo Station","lat":36.1698483,"lng":136.2025132},
{"name":"Shimoiida Station","lat":35.4979716,"lng":138.8036092},
{"name":"Shimohyogo Kofuku Station","lat":36.1698483,"lng":136.2025132},
{"name":"Shimo-Ichida Station","lat":35.544178,"lng":137.87635},
{"name":"Shimoichiguchi Station","lat":34.3839877,"lng":135.7868807},
{"name":"Shimo-Imaichi Station","lat":36.7255338,"lng":139.6922322},
{"name":"Shimo-Igusa Station","lat":35.72387000000001,"lng":139.624693},
{"name":"Shimoizumi Station","lat":35.022214,"lng":138.090046},
{"name":"Shimo-Ita Station","lat":41.282743,"lng":141.189904},
{"name":"Shimo-Isaka Station","lat":34.2620849,"lng":135.3405481},
{"name":"Shimoji Station","lat":34.7806682,"lng":137.3706903},
{"name":"Shimojima Station (Matsumoto)","lat":36.206301,"lng":137.871871},
{"name":"Shimojima Station (Ina)","lat":35.812843,"lng":137.940084},
{"name":"Shimo-Itabashi Station","lat":35.745712,"lng":139.7147948},
{"name":"Shimo-Kanayama Station","lat":43.197108,"lng":142.415263},
{"name":"Shimo-Kamoo Station","lat":33.614711,"lng":130.72824},
{"name":"Shimo-Kawai Station","lat":35.069312,"lng":137.78632},
{"name":"Shimokawazoi Station","lat":35.6615587,"lng":139.6670891},
{"name":"Shimokita Station","lat":41.282743,"lng":141.189904},
{"name":"Shimo-Kawabe Station","lat":34.55437500000001,"lng":133.205212},
{"name":"Shimo-Kitazawa Station","lat":35.6615587,"lng":139.6670891},
{"name":"Shimoko Station","lat":34.9271704,"lng":132.1103909},
{"name":"Shimokoma Station","lat":41.282743,"lng":141.189904},
{"name":"Shimokosawa Station","lat":35.6615587,"lng":139.6670891},
{"name":"Shimomatsu Station","lat":34.7034086,"lng":137.7349545},
{"name":"Shimo-Maruko Station","lat":35.571333,"lng":139.685444},
{"name":"Shimokuno Station","lat":35.7013008,"lng":139.7000494},
{"name":"Shimonada Station","lat":33.6551546,"lng":132.5893687},
{"name":"Shimonagaya Station","lat":35.402737,"lng":139.559156},
{"name":"Shimomizo Station","lat":35.51847,"lng":139.380527},
{"name":"Shimonogo Station","lat":36.3631557,"lng":138.2171804},
{"name":"Shimonita Station","lat":36.2105876,"lng":138.7861968},
{"name":"Shimonoseki Station","lat":34.00692,"lng":130.949042},
{"name":"Shimonii Station","lat":36.2251183,"lng":137.9222315},
{"name":"Shimonomiya Station","lat":34.991801,"lng":135.824132},
{"name":"Shimonosho Station","lat":34.81417,"lng":136.479609},
{"name":"Shimonoshiro Station","lat":35.4979716,"lng":138.8036092},
{"name":"Shimo-Ogawa Station","lat":36.669089,"lng":140.387061},
{"name":"Shimonuma Station","lat":45.037111,"lng":141.758093},
{"name":"Shimo-Ochiai Station","lat":35.7158806,"lng":139.6949815},
{"name":"Shimo-Otai Station","lat":35.20258,"lng":136.870866},
{"name":"Shimoori Station","lat":33.5178,"lng":130.490264},
{"name":"Shimo-Okui Station","lat":36.71144400000001,"lng":137.224556},
{"name":"Shimosa-Manzaki Station","lat":35.807767,"lng":140.277523},
{"name":"Shimosa-Nakayama Station","lat":35.7143272,"lng":139.9430164},
{"name":"Shimosa-Tachibana Station","lat":35.818777,"lng":140.702154},
{"name":"Shimosa-Toyosato Station","lat":35.792864,"lng":140.720959},
{"name":"Shimosa-Kozaki Station","lat":35.894927,"lng":140.410925},
{"name":"Shimosato Station","lat":33.5823933,"lng":135.9223415},
{"name":"Shimo-Shibetsu Station","lat":44.210262,"lng":142.39645},
{"name":"Shimo-Shinden Station","lat":36.407617,"lng":139.315136},
{"name":"Shimo-Shii Station","lat":35.6661933,"lng":139.7583319},
{"name":"Shimo-Shinmei Station","lat":35.6088034,"lng":139.7262652},
{"name":"Shimo-Shinjo Station","lat":34.746766,"lng":135.519806},
{"name":"Shimo-Shirataki Station","lat":43.9447856,"lng":143.2763681},
{"name":"Shimo-Sone Station","lat":33.83219,"lng":130.934965},
{"name":"Shimo-Sugaya Station","lat":36.43523,"lng":140.494117},
{"name":"Shimo-Takaido Station","lat":35.6661358,"lng":139.6409392},
{"name":"Shimotaki Station","lat":35.0878102,"lng":135.0941814},
{"name":"Shimo-Suwa Station","lat":36.071984,"lng":138.085061},
{"name":"Shimo-Soga Station","lat":35.3038915,"lng":139.1833416},
{"name":"Sammon Station","lat":0,"lng":0},
{"name":"Seikan Tunnel Kinenkan Station","lat":0,"lng":0},
{"name":"Shiminbyoin-mae Station (Toyama)","lat":0,"lng":0},
{"name":"omachi Station (Astram Line)","lat":0,"lng":0},
{"name":"Shakujiikoen Station","lat":35.743645,"lng":139.606555},
{"name":"Otomesaka Station","lat":0,"lng":0},
