{"name":"Fukuroda Station","lat":36.754774,"lng":140.379586},
{"name":"Fukui Station (Tochigi)","lat":36.305216,"lng":139.458628},
{"name":"Fukuro-machi Station","lat":34.3911905,"lng":132.4562169},
{"name":"Fukuoka Kamotsu Terminal Station","lat":33.6087707,"lng":130.4000539},
{"name":"Fukuonji Station","lat":33.822709,"lng":132.7882603},
{"name":"Fukuro Station","lat":34.3908105,"lng":132.456064},
{"name":"Fukura Station","lat":39.069909,"lng":139.878635},
{"name":"Fukushimagakuin-mae Station","lat":37.798713,"lng":140.488558},
{"name":"Fukuroi Station","lat":34.741325,"lng":137.92607},
{"name":"Fukushima-Imamachi Station","lat":31.456907,"lng":131.203365},
{"name":"Fukube Station","lat":35.545508,"lng":134.287305},
{"name":"Fukudaimae Nishi-Fukui Station","lat":36.074298,"lng":136.21017},
{"name":"Fukushima Station (Fukushima)","lat":37.753886,"lng":140.460344},
{"name":"Fukue Station","lat":34.0470901,"lng":130.9155941},
{"name":"Funahirayama Station","lat":34.42136,"lng":131.733987},
{"name":"Funairi-hon-machi Station","lat":34.3857059,"lng":132.4427032},
{"name":"Fukuyoshi Station","lat":33.5015654,"lng":130.0795764},
{"name":"Fukuyama Station","lat":34.4889443,"lng":133.3625422},
{"name":"Fukuzumi Station","lat":43.021929,"lng":141.402617},
{"name":"Fukuchi Station","lat":34.8443331,"lng":137.0484776},
{"name":"Fukuhara Station","lat":36.351536,"lng":140.187203},
{"name":"Furen Station","lat":43.347089,"lng":142.391256},
{"name":"Fukudaimae Station","lat":33.5474506,"lng":130.3623566},
{"name":"Fukuchiyama-shimin-byoin-guchi Station","lat":35.3067045,"lng":135.1085466},
{"name":"Fukuma Station","lat":33.763717,"lng":130.487146},
{"name":"Fukugawa Station","lat":43.721338,"lng":142.041653},
{"name":"Fukudamachi Station","lat":34.3911905,"lng":132.4562169},
{"name":"Fukui Station (Okayama)","lat":34.569969,"lng":133.744441},
{"name":"Fukuiguchi Station","lat":36.0706037,"lng":136.2329284},
{"name":"Fukui-eki Station","lat":36.0621204,"lng":136.2221627},
{"name":"Fune-no-kagakukan Station","lat":35.6213286,"lng":139.7730778},
{"name":"Fukuchiyama Station","lat":35.2959786,"lng":135.1184251},
{"name":"Fuku Station","lat":34.699575,"lng":135.44287},
{"name":"Furano Station","lat":43.347089,"lng":142.391256},
{"name":"Fukui Station (Fukui)","lat":36.0616504,"lng":136.2235456},
{"name":"Fukugami Station","lat":34.395423,"lng":135.750187},
{"name":"Funabashi-Keibajo Station","lat":35.6896128,"lng":139.9981661},
{"name":"Fukurogura Station","lat":36.543999,"lng":138.579138},
{"name":"Funairi-minami-machi Station","lat":34.3750107,"lng":132.437257},
{"name":"Fukuwatari Station","lat":34.870299,"lng":133.904},
{"name":"Fukusaki Station","lat":34.960752,"lng":134.750755},
{"name":"Fukushima-cho Station","lat":34.394794,"lng":132.434091},
{"name":"Fukushima-Takamatsu Station","lat":31.45849,"lng":131.178228},
{"name":"Fureai-Shoriki Station","lat":33.700285,"lng":130.765095},
{"name":"Funatsu Station (Toba, Mie)","lat":34.456858,"lng":136.841979},
{"name":"Furuichi Station (Osaka)","lat":34.553604,"lng":135.6088437},
{"name":"Furue Station","lat":34.385822,"lng":132.410816},
{"name":"Furugo Station","lat":33.220689,"lng":131.607532},
{"name":"Furudate Station","lat":39.580859,"lng":141.154581},
{"name":"Furuichi Station (Hiroshima)","lat":34.457704,"lng":132.475058},
{"name":"Funabashi-Hoten Station","lat":35.701557,"lng":139.985338},
{"name":"Funabori Station","lat":35.683797,"lng":139.863952},
{"name":"Fukuoka Station","lat":33.5902414,"lng":130.4212219},
{"name":"Funagata Station","lat":38.691688,"lng":140.316059},
{"name":"Fukushimaguchi Station","lat":37.753886,"lng":140.460344},
{"name":"Funabashi Station","lat":35.701557,"lng":139.985338},
{"name":"Funairi-machi Station","lat":34.389239,"lng":132.444951},
{"name":"Funaoka Station (Kyoto)","lat":35.133499,"lng":135.491795},
{"name":"Fukutawara Station","lat":35.546214,"lng":140.341862},
{"name":"Funabashi-Nichidaimae Station","lat":35.72727,"lng":140.0596},
{"name":"Fukuyo Station","lat":34.90192200000001,"lng":138.09005},
{"name":"Furuichibashi Station","lat":34.450538,"lng":132.468031},
{"name":"Funairi-saiwai-cho Station","lat":34.383323,"lng":132.441258},
{"name":"Funasa Station","lat":34.808004,"lng":132.766076},
{"name":"Fukuno Station (Toyama)","lat":36.5885496,"lng":136.9231848},
{"name":"Fukuokakuko Station","lat":33.597041,"lng":130.448404},
{"name":"Fukuura Station","lat":35.34965570000001,"lng":139.6485743},
{"name":"Funato Station","lat":34.2484931,"lng":135.3116606},
{"name":"Funairi-kawaguchi-cho Station","lat":34.380407,"lng":132.439591},
{"name":"Funaoka Station (Miyagi)","lat":38.0592657,"lng":140.7683239},
{"name":"Funakoshi Station","lat":39.904729,"lng":139.946644},
{"name":"Fukumitsu Station","lat":36.558536,"lng":136.878592},
{"name":"Funatsu Station (Kihoku, Mie)","lat":34.1422884,"lng":136.2284192},
{"name":"Fuminosato Station","lat":34.6356639,"lng":135.5184136},
{"name":"Funao Station (Osaka)","lat":34.550037,"lng":135.450708},
{"name":"Funao Station (Fukuoka)","lat":33.630154,"lng":130.767374},
{"name":"Funamachi Station","lat":34.7752229,"lng":137.3742397},
{"name":"Fukuno Station (Gifu)","lat":35.6465829,"lng":136.9516283},
{"name":"Fushiki Station","lat":36.7920335,"lng":137.0579568},
{"name":"Furukuchi Station","lat":38.73715,"lng":140.145849},
{"name":"Furuichi Station (Hyogo)","lat":35.0219259,"lng":135.155127},
{"name":"Funehiki Station","lat":37.44314500000001,"lng":140.574511},
{"name":"Furujima Station","lat":26.2308324,"lng":127.7030788},
{"name":"Furutsu Station","lat":37.7728112,"lng":139.114543},
{"name":"Furukawa Station","lat":38.57060999999999,"lng":140.96773},
{"name":"Furuma Station","lat":36.7919172,"lng":138.2303847},
{"name":"Furusatokoen Station","lat":37.243065,"lng":139.858915},
{"name":"Furusan Station","lat":42.975031,"lng":141.794056},
{"name":"Furutakamatsu Station","lat":34.340781,"lng":134.112388},
{"name":"Fusamoto Station","lat":32.7902059,"lng":130.6892366},
{"name":"Furuse Station","lat":42.947832,"lng":144.008469},
{"name":"Furukawabashi Station","lat":34.7401598,"lng":135.5920715},
{"name":"Funamachiguchi Station","lat":35.0635956,"lng":135.0098323},
{"name":"Furusho Station","lat":34.992837,"lng":138.419546},
{"name":"Fukushima Station (Osaka)","lat":34.6972408,"lng":135.4868597},
{"name":"Fusa Station","lat":35.84914699999999,"lng":140.133061},
{"name":"Furutakamatsu-Minami Station","lat":34.3411669,"lng":134.1212195},
{"name":"Fusazaki Station","lat":34.3324669,"lng":134.1584354},
{"name":"Fuse Station","lat":34.664082,"lng":135.563416},
{"name":"Fushimi Station (Aichi)","lat":35.1692586,"lng":136.8974205},
{"name":"Futaiwa Station","lat":33.4246634,"lng":132.4579284},
{"name":"Fuso Station","lat":35.359675,"lng":136.916051},
{"name":"Fushimi Station (Kyoto)","lat":34.945972,"lng":135.761389},
{"name":"Gion Station (Chiba)","lat":35.39161,"lng":139.948401},
{"name":"Ginza-itchome Station","lat":35.6743941,"lng":139.7669788},
{"name":"Futago Station","lat":35.284013,"lng":136.7659},
{"name":"Fussa Station","lat":35.7422781,"lng":139.3278663},
{"name":"Fushimi-Inari Station","lat":34.96879150000001,"lng":135.7691659},
{"name":"Futaba Station","lat":37.454045,"lng":141.005835},
{"name":"Futada Station","lat":39.8814,"lng":139.9871969},
{"name":"Futagawa Station","lat":34.725723,"lng":137.4388905},
{"name":"Gejo Station","lat":34.9963803,"lng":135.7601362},
{"name":"Geibikei Station","lat":38.988959,"lng":141.253324},
{"name":"Gansuiji Station","lat":34.8377375,"lng":137.7924045},
{"name":"Genjiinomori Station","lat":33.615991,"lng":130.895724},
{"name":"Gijukukokomae Station","lat":40.555809,"lng":140.52753},
{"name":"Gakumon Station","lat":33.896382,"lng":135.15681},
{"name":"Gakuentoshi Station","lat":34.6815117,"lng":135.0574651},
{"name":"Gekkoji Station","lat":35.4931892,"lng":138.7980794},
{"name":"Ginsui Station","lat":33.0548851,"lng":130.461044},
{"name":"Ganda Station","lat":35.6921413,"lng":139.7712247},
{"name":"Gakunan-Fujioka Station","lat":35.1609776,"lng":138.7235508},
{"name":"Fushimi-Momoyama Station","lat":34.9328183,"lng":135.7643706},
{"name":"Gamagori Station","lat":34.8230146,"lng":137.2261937},
{"name":"Genbaku Dome-mae Station (Atomic Bomb Dome)","lat":34.395483,"lng":132.453592},
{"name":"Gembudo Station","lat":35.588598,"lng":134.799007},
{"name":"Gero Station","lat":35.80591,"lng":137.239673},
{"name":"Gendoji Station","lat":35.214512,"lng":138.6269728},
{"name":"Gibo Station","lat":26.2245921,"lng":127.7190679},
{"name":"Geidaidori Station","lat":35.171894,"lng":137.061129},
{"name":"Gala-Yuzawa Station","lat":36.950208,"lng":138.799797},
{"name":"Gatsugi Station","lat":35.443783,"lng":139.378586},
{"name":"Gamagori-kyoteijo-mae Station","lat":34.8256013,"lng":137.2022282},
{"name":"Gifu Station","lat":35.4095375,"lng":136.7564647},
{"name":"Ginan Station","lat":35.389779,"lng":136.769229},
{"name":"Fuzokuchugakumae Station","lat":36.6624692,"lng":138.2483122},
{"name":"Gamo-yonchome Station","lat":34.700411,"lng":135.547277},
{"name":"Gaku Station","lat":34.0577505,"lng":134.2863835},
{"name":"Gifu-Hashima Station","lat":35.315841,"lng":136.685295},
{"name":"Gakuden Station (Aichi)","lat":35.330568,"lng":136.950021},
{"name":"Gakuden Station (Hokkaido)","lat":43.366726,"lng":142.386505},
{"name":"Gaienmae Station","lat":35.670399,"lng":139.7178259},
{"name":"Futamata-Hommachi Station","lat":34.8595986,"lng":137.8127275},
{"name":"Genseikaen Station","lat":43.941143,"lng":144.414422},
{"name":"Gojikkoku Station","lat":43.2387858,"lng":144.5457169},
{"name":"Gakuen-mae Station (Chiba)","lat":35.560763,"lng":140.15846},
{"name":"Fushiya Station","lat":35.140058,"lng":136.8279},
{"name":"Futamata Station (Kyoto)","lat":35.413376,"lng":135.154787},
{"name":"Geba Station","lat":38.30567,"lng":141.015044},
{"name":"Gakuen-mae Station (Nara)","lat":34.697,"lng":135.750065},
{"name":"Futajima Station","lat":33.889429,"lng":130.748786},
{"name":"Gobara Station","lat":36.548865,"lng":138.801174},
{"name":"Gakkomae Station","lat":33.336211,"lng":130.547152},
{"name":"Ginza Station","lat":35.6714054,"lng":139.7653555},
{"name":"Gakunan-Harada Station","lat":35.166182,"lng":138.7054444},
{"name":"Goino Station","lat":31.475282,"lng":130.503982},
{"name":"Gakken Kita-Ikoma Station","lat":34.724857,"lng":135.723761},
{"name":"Futamata Station (Hokkaido)","lat":42.575865,"lng":140.320716},
{"name":"Gobira Station","lat":35.250852,"lng":139.048205},
{"name":"Godo Station (Gunma)","lat":36.537493,"lng":139.356516},
{"name":"Fuya Station","lat":38.513436,"lng":139.530664},
{"name":"Gochaku Station","lat":34.817041,"lng":134.7354562},
{"name":"Futako-Shinchi Station","lat":35.60695750000001,"lng":139.6224949},
{"name":"Futamatao Station","lat":35.803878,"lng":139.216197},
{"name":"Futamatagawa Station","lat":35.4635766,"lng":139.5323099},
{"name":"Gamo Station","lat":35.866886,"lng":139.791756},
{"name":"Futaminoura Station","lat":34.5037763,"lng":136.7775388},
{"name":"Futomi Station","lat":35.081482,"lng":140.096151},
{"name":"Ginzan Station","lat":35.6714054,"lng":139.7653555},
{"name":"Gakken Nara-Tomigaoka Station","lat":34.726496,"lng":135.752592},
{"name":"Gakuen-mae Station (Hokkaido)","lat":43.047897,"lng":141.3687849},
{"name":"Gion-Shijo Station","lat":35.0039708,"lng":135.7720929},
{"name":"Goido Station","lat":34.534795,"lng":135.717879},
{"name":"Futamata-Shimmachi Station","lat":35.6913887,"lng":139.9595774},
{"name":"Gofukumachi Station (Kumamoto)","lat":32.795887,"lng":130.697542},
{"name":"Futsukaichi Station","lat":33.5021504,"lng":130.5178518},
{"name":"Futako-Tamagawa Station","lat":35.6117047,"lng":139.6266696},
{"name":"Gohyakugawa Station","lat":37.4828391,"lng":140.3878823},
{"name":"Gakugeidaigaku Station","lat":35.628743,"lng":139.685247},
{"name":"Godai Station","lat":36.424064,"lng":140.490118},
{"name":"Fuwa-Ishiki Station","lat":35.332951,"lng":136.721875},
{"name":"Goi Station","lat":35.5131924,"lng":140.0897356},
{"name":"Gannosu Station","lat":33.683946,"lng":130.4036},
{"name":"Futatsui Station","lat":40.212535,"lng":140.235519},
{"name":"Futatsuiri Station","lat":35.194692,"lng":136.859229},
{"name":"Gion Station (Fukuoka)","lat":33.594096,"lng":130.414518},
{"name":"Gochi Station","lat":34.406752,"lng":136.810122},
{"name":"Gobo Station","lat":33.9077129,"lng":135.1591588},
{"name":"Gakushuin-shita Station","lat":35.7161175,"lng":139.7123095},
{"name":"Godo Station (Gifu)","lat":35.4346212,"lng":137.1056423},
{"name":"Gofukumachi Station (Fukuoka)","lat":33.5979057,"lng":130.409539},
{"name":"Futawa-Mukodai Station","lat":35.753877,"lng":140.023741},
{"name":"Gion-shimbashikita Station","lat":34.435235,"lng":132.470753},
{"name":"Gakuen-dori Station","lat":35.4417372,"lng":135.3305456},
{"name":"Gohyakurakan Station","lat":35.2752917,"lng":139.1558213},
{"name":"Godo Station (Fukushima)","lat":37.516362,"lng":139.709943},
{"name":"Gakunan-Enoo Station","lat":35.1552738,"lng":138.7516473},
{"name":"Futana Station","lat":33.291479,"lng":132.628967},
{"name":"Futo Station","lat":34.9094186,"lng":139.1310984},
{"name":"Futatsuka Station","lat":36.714327,"lng":137.006075},
{"name":"Goshi Station","lat":36.295405,"lng":139.223787},
{"name":"Gotanno Station","lat":35.76587,"lng":139.80962},
{"name":"Gotokuji Station","lat":35.653739,"lng":139.647361},
{"name":"Gotanda Station","lat":35.6261591,"lng":139.7236022},
{"name":"Gotsu-Hommachi Station","lat":35.007219,"lng":132.230146},
{"name":"Gumyo Station","lat":35.580018,"lng":140.396411},
{"name":"Gumyoji Station (Keikyu)","lat":35.424069,"lng":139.596902},
{"name":"Gujo-Yamato Station","lat":35.8151067,"lng":136.8950716},
{"name":"Gujo Station","lat":35.7606478,"lng":139.7221413},
{"name":"Gotenyama Station","lat":34.829371,"lng":135.654152},
{"name":"Goto Station","lat":35.439971,"lng":133.331283},
{"name":"Gunchuko Station","lat":33.756068,"lng":132.7021235},
{"name":"Goyu Station","lat":34.9963803,"lng":135.7601362},
{"name":"Goshogawara Station","lat":40.808915,"lng":140.447774},
{"name":"Gotemba Station","lat":35.299955,"lng":138.934213},
{"name":"Gyoda Station","lat":36.113765,"lng":139.432249},
{"name":"Haba Station (Gifu)","lat":35.401198,"lng":136.921494},
{"name":"Gujo-Hachiman Station","lat":35.7419142,"lng":136.9473846},
{"name":"Gyodashi Station","lat":36.143484,"lng":139.45919},
{"name":"Gojo Station (Nara)","lat":34.355537,"lng":135.698804},
{"name":"Goma Station","lat":35.195325,"lng":135.468489},
{"name":"Goka Station","lat":35.250852,"lng":139.048205},
{"name":"Gokurakubashi Station","lat":34.234381,"lng":135.582068},
{"name":"Hadasu Station","lat":33.9102683,"lng":136.1383805},
{"name":"Goromaru Station","lat":33.330489,"lng":130.539959},
{"name":"Gora Station","lat":35.250852,"lng":139.048205},
{"name":"Goryo Station (Hiroshima)","lat":34.565073,"lng":133.402721},
{"name":"Gosawa Station","lat":40.98776100000001,"lng":140.65233},
{"name":"Gunchu Station","lat":33.760567,"lng":132.703947},
{"name":"Gokasho Station","lat":35.154819,"lng":136.197232},
{"name":"Hadachi Station","lat":39.904477,"lng":139.8619009},
{"name":"Gunma-otsu Station","lat":36.55386,"lng":138.62805},
{"name":"Gonokomae Station","lat":40.821081,"lng":140.4784931},
{"name":"Gongenmae Station","lat":34.6179016,"lng":136.4821776},
{"name":"Gokan Station","lat":36.67955,"lng":138.999985},
{"name":"Gyokukeijimae Station","lat":34.885319,"lng":136.069225},
{"name":"Gokokuji Station","lat":35.719123,"lng":139.727462},
{"name":"Gotsu Station","lat":35.012746,"lng":132.223147},
{"name":"Hagi Station","lat":34.3938712,"lng":131.4010716},
{"name":"Goro Station","lat":35.250852,"lng":139.048205},
{"name":"Goryokaku Station","lat":41.803392,"lng":140.7339042},
{"name":"Gunma-Soja Station","lat":36.4158198,"lng":139.0323929},
{"name":"Gunma-Fujioka Station","lat":36.2501852,"lng":139.083322},
{"name":"Gunma-Haramachi Station","lat":36.5717219,"lng":138.8244084},
{"name":"Gunma-Yawata Station","lat":36.3378688,"lng":138.9574643},
{"name":"Gomen Station","lat":33.5791401,"lng":133.6454058},
{"name":"Gosha Station","lat":34.806058,"lng":135.216303},
{"name":"Gokiso Station","lat":35.1495546,"lng":136.9336637},
{"name":"Gojo Station (Kyoto)","lat":34.9963803,"lng":135.7601362},
{"name":"Gudo Station","lat":32.979382,"lng":132.915229},
{"name":"Hachimanmae Station (Kyoto)","lat":35.066375,"lng":135.792327},
{"name":"Gonosan Station","lat":35.12939,"lng":136.711383},
{"name":"Habu Station","lat":34.049251,"lng":131.086556},
{"name":"Hachigata Station","lat":36.113926,"lng":139.208574},
{"name":"Haba Station (Nagano)","lat":35.95305099999999,"lng":137.985158},
{"name":"Hachinohe Station","lat":40.5092745,"lng":141.4311736},
{"name":"Hachisu Station","lat":36.808907,"lng":138.349175},
{"name":"Gumyoji Station (Yokohama Subway)","lat":35.422958,"lng":139.60204},
{"name":"Gondo Station","lat":36.653226,"lng":138.192057},
{"name":"Gose Station","lat":34.4646579,"lng":135.7339678},
{"name":"Goko Station","lat":35.797259,"lng":139.9658},
{"name":"Gokurakuji Station","lat":35.309441,"lng":139.528968},
{"name":"Goryomae Station","lat":34.933668,"lng":135.765611},
{"name":"Gosen Station","lat":37.734406,"lng":139.179786},
{"name":"Goryo Station (Kagoshima)","lat":31.251778,"lng":130.468657},
{"name":"Gosannen Station","lat":39.36492200000001,"lng":140.538423},
{"name":"Gokei Station","lat":34.70623,"lng":133.722438},
{"name":"Gomenmachi Station","lat":34.68200660000001,"lng":135.4986274},
{"name":"Hagure Station","lat":36.126867,"lng":139.15805},
{"name":"Hage Station","lat":33.201743,"lng":132.791817},
{"name":"Hadakajima Station","lat":35.418568,"lng":138.459721},
{"name":"Hachihama Station","lat":34.7170673,"lng":137.7359144},
{"name":"Hachirogata Station","lat":39.9478394,"lng":140.0784629},
{"name":"Hadano Station","lat":35.3701768,"lng":139.2258687},
{"name":"Haenosaki Station","lat":33.087004,"lng":129.801143},
{"name":"Hachihommatsu Station","lat":34.44546,"lng":132.688345},
{"name":"Gyotoku Station","lat":35.682604,"lng":139.914142},
{"name":"Hachiman Station","lat":34.7170673,"lng":137.7359144},
{"name":"Haguro Station (Ibaraki)","lat":36.35528499999999,"lng":140.142956},
{"name":"Hachimanyama Station","lat":35.6697771,"lng":139.6161767},
{"name":"Hachimori Station","lat":40.371204,"lng":140.01778},
{"name":"Hachioji Station","lat":35.6556157,"lng":139.3388529},
{"name":"Hagoromo Station","lat":34.534428,"lng":135.442042},
{"name":"Hachimantai Station","lat":40.143227,"lng":140.804388},
{"name":"Hachioji-Minamino Station","lat":35.631317,"lng":139.330972},
{"name":"Hachiken Station","lat":43.08653,"lng":141.3192601},
{"name":"Hachimanmae Station (Wakayama)","lat":34.252647,"lng":135.121635},
{"name":"Hagyu Station","lat":38.062058,"lng":140.004199},
{"name":"Hagiyama Station","lat":35.7404233,"lng":139.4774583},
{"name":"Hagiwara Station (Aichi)","lat":35.277208,"lng":136.757679},
{"name":"Hagiwara Station (Fukuoka)","lat":33.861627,"lng":130.749536},
{"name":"Hagurazaki Station","lat":35.703819,"lng":139.734518},
{"name":"Haginodai Station","lat":35.6048782,"lng":139.702656},
{"name":"Hagiharatenjin Station","lat":34.537513,"lng":135.534312},
{"name":"Haguroshita Station","lat":36.166373,"lng":138.489606},
{"name":"Haguro Station (Aichi)","lat":35.351565,"lng":136.952465},
{"name":"Haginochaya Station","lat":34.645722,"lng":135.499006},
{"name":"Hagino Station","lat":42.5211522,"lng":141.3059885},
{"name":"Gongenzaki Station","lat":0,"lng":0},
{"name":"Hachinohekamotsu Station","lat":0,"lng":0},
{"name":"Hasedera Station","lat":34.526717,"lng":135.906169},
{"name":"Hase Station (Hyogo)","lat":35.116928,"lng":134.748028},
{"name":"Haki Station","lat":32.410374,"lng":130.645501},
{"name":"Hanuki Station","lat":34.4772722,"lng":135.3920331},
{"name":"Hajinosato Station","lat":34.57165,"lng":135.615526},
{"name":"Haji Station","lat":35.232959,"lng":134.225626},
{"name":"Hakata Station","lat":33.5902414,"lng":130.4212219},
{"name":"Haiki Station","lat":33.1336552,"lng":129.7990626},
{"name":"Hakataminami Station","lat":33.517855,"lng":130.436852},
{"name":"Hakkeijima Station","lat":35.340858,"lng":139.64079},
{"name":"Haobi Station","lat":35.463884,"lng":139.617364},
{"name":"Hassamu Station","lat":43.09981740000001,"lng":141.2772766},
{"name":"Hanzomon Station","lat":35.685377,"lng":139.741657},
{"name":"Hashimashiyakushomae Station","lat":35.3219704,"lng":136.6999963},
{"name":"Hanshin-Kokudo Station","lat":34.737625,"lng":135.355015},
{"name":"Hamonokaikan-mae Station","lat":35.4835204,"lng":136.914119},
{"name":"Haibara Station","lat":34.529746,"lng":135.954386},
{"name":"Hashikura Station","lat":34.0405308,"lng":133.8492358},
{"name":"Hanoura Station","lat":33.9578932,"lng":134.6254126},
{"name":"Hainuzuka Station","lat":33.209947,"lng":130.497605},
{"name":"Hanabatake Station","lat":33.305853,"lng":130.515017},
{"name":"Hanazono Station (Kyoto)","lat":35.018601,"lng":135.718168},
{"name":"Haijima Station","lat":35.721077,"lng":139.3436183},
{"name":"Hashimoto Station (Wakayama)","lat":34.3182543,"lng":135.6146423},
{"name":"Hashimoto Station (Kanagawa)","lat":35.5948639,"lng":139.3449224},
{"name":"Hanando Station","lat":36.040913,"lng":136.215337},
{"name":"Hashirano Station","lat":34.143817,"lng":132.15454},
{"name":"Haneda Airport Domestic Terminal Station","lat":35.5499709,"lng":139.786427},
{"name":"Hata Station (Hyogo)","lat":34.850102,"lng":134.919855},
{"name":"Hakariishi Station","lat":34.815733,"lng":135.6487946},
{"name":"Harumachi Station","lat":33.611956,"lng":130.471874},
{"name":"Hanazono Station (Kagawa)","lat":34.3341602,"lng":134.0594945},
{"name":"Handaguchi Station","lat":34.1728,"lng":131.480989},
{"name":"Hanakoganei Station","lat":35.726144,"lng":139.513313},
{"name":"Hanamakikuko Station","lat":39.442236,"lng":141.127284},
{"name":"Hanakuma Station","lat":34.686626,"lng":135.18181},
{"name":"Hassamu-Chuo Station","lat":43.089251,"lng":141.294484},
{"name":"Hanamizuzaka Station","lat":37.827487,"lng":140.45081},
{"name":"Handa Station","lat":35.6921413,"lng":139.7712247},
{"name":"Hatchobori Station (Tokyo)","lat":35.67459729999999,"lng":139.7778069},
{"name":"Hane Station","lat":35.2399443,"lng":132.525373},
{"name":"Hasuda Station","lat":35.981286,"lng":139.653069},
{"name":"Hanno Station","lat":35.5987651,"lng":136.942016},
{"name":"Hashio Station","lat":35.808088,"lng":139.845254},
{"name":"Harue Station","lat":36.129042,"lng":136.228583},
{"name":"Hatonosu Station","lat":35.815096,"lng":139.128982},
{"name":"Haruyama Station","lat":39.366582,"lng":141.257666},
{"name":"Hara Station (Aichi)","lat":35.126064,"lng":136.996969},
{"name":"Hata Station (Nagano)","lat":36.2001182,"lng":137.8562685},
{"name":"Hassamuminami Station","lat":43.081168,"lng":141.29079},
{"name":"Hakonegasaki Station","lat":35.7713118,"lng":139.3467142},
{"name":"Haruta Station","lat":35.1432186,"lng":136.8136747},
{"name":"Hatchobori Station (Hiroshima)","lat":34.3939898,"lng":132.4629037},
{"name":"Hama-Kawasaki Station","lat":35.5102284,"lng":139.7138465},
{"name":"Hatae Station","lat":33.5641553,"lng":130.226946},
{"name":"Harmony Hall Station","lat":36.014166,"lng":136.205506},
{"name":"Hasunuma Station","lat":35.5641984,"lng":139.7084797},
{"name":"Hasumachi Station","lat":34.68200660000001,"lng":135.4986274},
{"name":"Handafuto Station","lat":34.882643,"lng":136.9502121},
{"name":"Hakuyacho Station","lat":35.66263,"lng":139.744741},
{"name":"Hamamatsudaigakumae Station","lat":34.8200969,"lng":137.7093538},
{"name":"Hakenomiya Station","lat":32.841326,"lng":130.722733},
{"name":"Hamanaka Station","lat":43.157678,"lng":145.099636},
{"name":"Hakuba-oike Station","lat":36.739875,"lng":137.885524},
{"name":"Hakodate Station","lat":41.77378,"lng":140.7264741},
{"name":"Hamamura Station","lat":35.509312,"lng":134.050716},
{"name":"Hamakita Station","lat":34.7917191,"lng":137.7845433},
{"name":"Hakurindai Station","lat":42.928916,"lng":143.165045},
{"name":"Hakuba Station","lat":36.695962,"lng":137.863778},
{"name":"Hashihama Station","lat":34.0980538,"lng":132.9688228},
{"name":"Hakuraku Station","lat":35.48970020000001,"lng":139.6279213},
{"name":"Hamacho Station","lat":35.6884791,"lng":139.787937},
{"name":"Hamano Station","lat":35.5520094,"lng":140.132061},
{"name":"Hamada Station","lat":34.902536,"lng":132.089838},
{"name":"Hanaizumi Station","lat":38.8334484,"lng":141.1801319},
{"name":"Hakusan Station (Tokyo)","lat":35.7214787,"lng":139.7524034},
{"name":"Hanyuda Station","lat":37.6933966,"lng":139.0606819},
{"name":"Hakozaki-Kyudaimae Station","lat":33.622037,"lng":130.421017},
{"name":"Harima-Takaoka Station","lat":34.841983,"lng":134.6587617},
{"name":"Harima-Shingu Station","lat":34.921335,"lng":134.545803},
{"name":"Harborland Station","lat":34.6778639,"lng":135.1783723},
{"name":"Hamagochi Station","lat":34.1728,"lng":131.480989},
{"name":"Harimacho Station","lat":34.716644,"lng":134.868086},
{"name":"Haratai Station","lat":39.60457,"lng":141.766804},
{"name":"Hamataura Station","lat":42.590886,"lng":141.883599},
{"name":"Hatsutomi Station","lat":35.771958,"lng":140.000465},
{"name":"Hattori-tenjin Station","lat":34.7635133,"lng":135.4751534},
{"name":"Harataima Station","lat":35.529274,"lng":139.375055},
{"name":"Hakui Station","lat":36.8966426,"lng":136.7832698},
{"name":"Harima-Tokusa Station","lat":34.990601,"lng":134.385648},
{"name":"Hamayamakoen-Kitaguchi Station","lat":35.389046,"lng":132.708119},
{"name":"Hamanako-Sakume Station","lat":34.7892043,"lng":137.5994268},
{"name":"Haneda Airport Terminal 1 Station","lat":35.5491495,"lng":139.7847011},
{"name":"Hatsudai Station","lat":35.6809863,"lng":139.6861815},
{"name":"Hama-Atsuma Station","lat":42.60691,"lng":141.836991},
{"name":"Hamasaki Station","lat":33.446856,"lng":130.037251},
{"name":"Hamaotsu Station","lat":35.01121699999999,"lng":135.864044},
{"name":"Handaibyoinmae Station","lat":34.8186206,"lng":135.5296892},
{"name":"Hamasaka Station","lat":35.6208756,"lng":134.4524086},
{"name":"Harada Station","lat":34.8200088,"lng":137.9529715},
{"name":"Harima-Katsuhara Station","lat":34.810072,"lng":134.613856},
{"name":"Haya Station","lat":33.747292,"lng":135.355298},
{"name":"Hamaderaekimae Station","lat":34.541371,"lng":135.443125},
{"name":"Harimayabashi Station","lat":33.5594525,"lng":133.542952},
{"name":"Hakusan Station (Niigata)","lat":37.9121329,"lng":139.0302144},
{"name":"Hanyu Station","lat":36.170289,"lng":139.534155},
{"name":"Hamaderakoen Station","lat":34.541177,"lng":135.444625},
{"name":"Hanasaki Station (Saitama)","lat":36.109937,"lng":139.633565},
{"name":"Hamanomiya Station","lat":34.6944749,"lng":135.1951944},
{"name":"Harima Station","lat":35.07816620000001,"lng":136.6748551},
{"name":"Harima-Shimosato Station","lat":34.886235,"lng":134.840167},
{"name":"Hakozaki-Miyamae Station","lat":33.61626,"lng":130.419379},
{"name":"Hashi Station","lat":33.559128,"lng":130.42699},
{"name":"Hatsushima Station","lat":35.0411111,"lng":139.1688889},
{"name":"Haranoya Station","lat":34.808402,"lng":137.954954},
{"name":"Harima-Yokota Station","lat":34.910398,"lng":134.825473},
{"name":"Hattorigawa Station","lat":34.626338,"lng":135.641244},
{"name":"Hama Station","lat":34.747407,"lng":138.995923},
{"name":"Hatto Station","lat":35.363557,"lng":134.316586},
{"name":"Harano Station","lat":35.871276,"lng":137.741543},
{"name":"Hamayoshida Station","lat":35.4979716,"lng":138.8036092},
{"name":"Hatsushiba Station","lat":34.542234,"lng":135.526423},
{"name":"Haneda Airport Terminal 2 Station","lat":35.55070020000001,"lng":139.7879961},
{"name":"Haruda Station","lat":33.451531,"lng":130.539372},
{"name":"Harinakano Station","lat":34.61734630000001,"lng":135.5329963},
{"name":"Harajuku Station","lat":35.6702285,"lng":139.7026976},
{"name":"Hattori Station","lat":34.6911097,"lng":133.7751721},
{"name":"Haramuko Station","lat":35.6702285,"lng":139.7026976},
{"name":"Haranomachi Station","lat":37.638134,"lng":140.970968},
{"name":"Hanno Station","lat":35.5987651,"lng":136.942016},
{"name":"Hataya Station","lat":35.3348417,"lng":132.9393507},
{"name":"Hanasaki Station (Hokkaido)","lat":43.2953799,"lng":145.5750317},
{"name":"Haneo Station","lat":36.550165,"lng":138.605497},
{"name":"Hataki Station","lat":33.56244410000001,"lng":132.5408857},
{"name":"Hattaushi Station","lat":35.883998,"lng":139.9178},
{"name":"Hatta Station","lat":35.658513,"lng":138.6471066},
{"name":"Hamamatsu Station","lat":34.7034086,"lng":137.7349545},
{"name":"Hanazonocho Station","lat":34.644166,"lng":135.496506},
{"name":"Hatori Station","lat":36.247523,"lng":140.286754},
{"name":"Hanataguchi Station","lat":34.5816276,"lng":135.4768187},
{"name":"Harutachi Station","lat":42.268501,"lng":142.4992019},
{"name":"Hatama Station","lat":33.37829,"lng":130.550734},
{"name":"Hatanodai Station","lat":35.6048782,"lng":139.702656},
{"name":"Hamakazumi Station","lat":36.7775052,"lng":137.3616728},
{"name":"Hatakeda Station","lat":34.577734,"lng":135.703601},
{"name":"Hanamizukidori Station","lat":35.177698,"lng":137.035186},
{"name":"Haruki Station","lat":34.4772722,"lng":135.3920331},
{"name":"Hakawa Station","lat":33.5902414,"lng":130.4212219},
{"name":"Hakozaki Station","lat":33.618177,"lng":130.426822},
{"name":"Hanamaki Station","lat":39.3931793,"lng":141.1107213},
{"name":"Hashioka Station","lat":34.305039,"lng":133.9676248},
{"name":"Hakone-Itabashi Station","lat":35.2454577,"lng":139.1448169},
{"name":"Hatogaya Station","lat":35.8167285,"lng":139.7363498},
{"name":"Hakunokokomae Station","lat":40.6020623,"lng":140.5646331},
{"name":"Hakuyo Station","lat":43.82489,"lng":143.916947},
{"name":"Hanawa Station","lat":36.520743,"lng":139.307687},
{"name":"Hanami Station","lat":33.588454,"lng":130.416959},
{"name":"Hamadayama Station","lat":35.6816308,"lng":139.6275196},
{"name":"Hatsuishi Station","lat":35.883998,"lng":139.9178},
{"name":"Hamura Station","lat":35.7584413,"lng":139.3159444},
{"name":"Hama-Kanaya Station","lat":35.168132,"lng":139.822254},
{"name":"Hamamatsucho Station","lat":35.655381,"lng":139.757129},
{"name":"Hanaten Station","lat":34.6880382,"lng":135.5630923},
{"name":"Haneda Airport International Terminal Station","lat":35.5448529,"lng":139.7672244},
{"name":"Hatsukaichi-shiyakusho-mae Station","lat":34.35265800000001,"lng":132.329546},
{"name":"Hanashiro Station","lat":35.3550382,"lng":137.4071438},
{"name":"Hasama Station","lat":35.7140502,"lng":140.0222372},
{"name":"Hatagaya Station","lat":35.6770576,"lng":139.6761859},
{"name":"Hatsukaichi Station","lat":34.357685,"lng":132.335573},
{"name":"Hanayama Station","lat":34.769562,"lng":135.187307},
{"name":"Hakone-Yumoto Station","lat":35.2334064,"lng":139.1038372},
{"name":"Hashikami Station","lat":40.45699400000001,"lng":141.665018},
{"name":"Hakotsukuri Station","lat":34.3413894,"lng":135.2125905},
{"name":"Hatchomuta Station","lat":33.208918,"lng":130.437582},
{"name":"Hakoishi Station","lat":34.20935559999999,"lng":135.3121019},
{"name":"Hase Station (Kanagawa)","lat":35.3112801,"lng":139.5358722},
{"name":"Hashibetsu Station","lat":43.8591567,"lng":141.5516713},
{"name":"Haraichi Station","lat":35.963898,"lng":139.622295},
{"name":"Hatada Station","lat":34.2592479,"lng":133.9721239},
{"name":"Hashimoto Station (Kyoto)","lat":34.881949,"lng":135.684204},
{"name":"Hashimoto Station (Fukuoka)","lat":33.5550741,"lng":130.3210164},
{"name":"Hama-Koshimizu Station","lat":43.93397900000001,"lng":144.45328},
{"name":"Hasune Station","lat":35.784198,"lng":139.679019},
{"name":"Hataura Station","lat":32.615431,"lng":130.487899},
{"name":"Hatsuno Station","lat":44.51277899999999,"lng":142.336185},
{"name":"Haramizu Station","lat":32.870603,"lng":130.829139},
{"name":"Hara Station (Shizuoka)","lat":35.124915,"lng":138.793343},
{"name":"Harukiba Station","lat":36.695962,"lng":137.863778},
{"name":"Hara Station (Kagawa)","lat":34.326513,"lng":134.1636216},
{"name":"Haruka Station","lat":33.555615,"lng":132.555272},
{"name":"Haruhino Station","lat":35.619294,"lng":139.464072},
{"name":"Hakusannagataki Station","lat":35.919553,"lng":136.832343},
{"name":"Hamahara Station","lat":35.060026,"lng":132.59975},
{"name":"Hasugaike Station","lat":34.7945903,"lng":135.4492839},
{"name":"Hatsukari Station","lat":35.594254,"lng":138.883622},
{"name":"Hatchonawate Station","lat":35.523005,"lng":139.691445},
{"name":"Hatabu Station","lat":33.9801634,"lng":130.9269609},
{"name":"Hariusu Station","lat":0,"lng":0},
{"name":"Hakushima Station (Hiroden)","lat":0,"lng":0},
{"name":"Hakushima Station (Astram)","lat":0,"lng":0},
{"name":"Hayashimichi Station","lat":34.3234381,"lng":134.0731818},
{"name":"Higashi-Soja Station","lat":34.677623,"lng":133.751242},
{"name":"Hokaiin Station","lat":34.684793,"lng":133.927532},
{"name":"Hiyoshi-Honcho Station","lat":35.550001,"lng":139.633477},
{"name":"Hideya Station","lat":35.67489030000001,"lng":139.7596051},
{"name":"Hieizan-Sakamoto Station","lat":35.070932,"lng":135.87843},
{"name":"Hida-Kanayama Station","lat":35.662507,"lng":137.164352},
{"name":"Higashi-Akiru Station","lat":35.725917,"lng":139.311664},
{"name":"Hizen-Fumoto Station","lat":33.3659705,"lng":130.4781232},
{"name":"Hizen-Ryuo Station","lat":33.146669,"lng":130.120335},
{"name":"Higashi-Abiko Station","lat":35.868948,"lng":140.047596},
{"name":"Hida-Kokufu Station","lat":36.21114,"lng":137.21566},
{"name":"Higashi-Tabira Station","lat":33.3581886,"lng":129.6231759},
{"name":"Hizume Station","lat":39.53867,"lng":141.160554},
{"name":"Hizen-Nagata Station","lat":32.86178400000001,"lng":130.079985},
{"name":"Hidaka-Tobetsu Station","lat":42.280778,"lng":142.521449},
{"name":"Hie Station","lat":34.9884505,"lng":134.995756},
{"name":"Hida-Ichinomiya Station","lat":36.088294,"lng":137.247717},
{"name":"Hizen-Nagano Station","lat":33.295622,"lng":129.970955},
{"name":"Hidaka-Mitsuishi Station","lat":42.2472407,"lng":142.5665606},
{"name":"Higashi-Aomori Station","lat":40.810536,"lng":140.783244},
{"name":"Hida-Hosoe Station","lat":36.261022,"lng":137.145747},
{"name":"Hizen-Kubo Station","lat":33.355699,"lng":130.000118},
{"name":"Higashi-Azuma Station","lat":35.707322,"lng":139.831621},
{"name":"Higashi-Asahikawa Station","lat":43.776567,"lng":142.441363},
{"name":"Hegawa Station","lat":33.694805,"lng":134.434769},
{"name":"Hizen-Hama Station","lat":33.095425,"lng":130.116725},
{"name":"Higashidate Station","lat":36.870234,"lng":140.42341},
{"name":"Higashi-Hashisaki Station","lat":34.887728,"lng":134.557664},
{"name":"Higashihama Station","lat":35.5997256,"lng":134.3626834},
{"name":"Hayato Station (Fukushima)","lat":37.470003,"lng":139.593483},
{"name":"Higashi-Hagi Station","lat":34.4170185,"lng":131.4103658},
{"name":"Higashi-Fussa Station","lat":35.745804,"lng":139.335911},
{"name":"Higashi-Fujishima Station","lat":37.799852,"lng":140.477336},
{"name":"Higashi-Hakuraku Station","lat":35.4832601,"lng":139.6294058},
{"name":"Higashi-Biwajima Station","lat":35.189915,"lng":136.870256},
{"name":"Higashi-Beppu Station","lat":33.26771,"lng":131.510484},
{"name":"Hodogaya Station","lat":35.44673,"lng":139.5995554},
{"name":"Higashibetsuin Station","lat":35.149976,"lng":136.904782},
{"name":"Hizen-Koga Station","lat":32.798428,"lng":129.951692},
{"name":"Higashi-Niigata Station","lat":37.908745,"lng":139.108673},
{"name":"Higashi-Gejo Station","lat":37.736854,"lng":139.321829},
{"name":"Higashi-Akasaka Station","lat":35.394135,"lng":136.600994},
{"name":"Hayashisaki-Matsuekaigan Station","lat":34.652153,"lng":134.965163},
{"name":"Higashi-Aohara Station","lat":34.585259,"lng":131.797365},
{"name":"Higashi-Fujiwara Station","lat":35.1476705,"lng":136.4988934},
{"name":"Higashi-Ginza Station","lat":35.6697003,"lng":139.7671399},
{"name":"Higashi-Fuchu Station","lat":35.668824,"lng":139.4947268},
{"name":"Higashi-Hachimori Station","lat":40.33209799999999,"lng":140.032448},
{"name":"Higashi-Hanawa Station","lat":35.594855,"lng":138.52707},
{"name":"Higashi-Futami Station","lat":34.700313,"lng":134.887807},
{"name":"Hokkeguchi Station","lat":34.875236,"lng":134.856332},
{"name":"Higashi-odate Station","lat":40.2666805,"lng":140.5545449},
{"name":"Higashi-Hanno Station","lat":35.853014,"lng":139.32613},
{"name":"Higashi-Chiba Station","lat":35.617284,"lng":140.122766},
{"name":"Higashi-Aoyama Station","lat":34.675654,"lng":136.321711},
{"name":"Higashi-Nojiri Station","lat":36.6187711,"lng":136.9436445},
{"name":"Higashi-Fukuyama Station","lat":34.4951965,"lng":133.4054411},
{"name":"Hogi Station","lat":35.514062,"lng":134.082518},
{"name":"Heiandori Station","lat":35.1958097,"lng":136.9297127},
{"name":"Hayato Station (Kagoshima)","lat":31.743728,"lng":130.740121},
{"name":"Hizen-Shiroishi Station","lat":33.187054,"lng":130.135832},
{"name":"Hizen-Nanaura Station","lat":33.070845,"lng":130.145279},
{"name":"Hizen-Yamaguchi Station","lat":33.2193507,"lng":130.1608134},
{"name":"Henashi Station","lat":40.60856,"lng":139.864948},
{"name":"Hojomachi Station","lat":34.68200660000001,"lng":135.4986274},
{"name":"Higashi-ogaki Station","lat":35.3751543,"lng":136.6460424},
{"name":"Hobara Station","lat":37.81482400000001,"lng":140.556968},
{"name":"Hoei Station","lat":42.26456,"lng":142.604664},
{"name":"Higashi-Niitsu Station","lat":37.787732,"lng":139.143536},
{"name":"Hoden Station","lat":34.784718,"lng":134.812117},
{"name":"Higashi-Tagonoura Station","lat":35.136246,"lng":138.745596},
{"name":"Higashi-ogu-sanchome Station","lat":35.745649,"lng":139.773874},
{"name":"Heizu Station","lat":35.0283974,"lng":136.618486},
{"name":"Hibino Station (Aisai, Aichi)","lat":35.163637,"lng":136.728547},
{"name":"Higashi-Naruo Station","lat":34.712628,"lng":135.379181},
{"name":"Higashi-omiya Station","lat":35.9487549,"lng":139.6402863},
{"name":"Hitomi Station","lat":33.687481,"lng":130.770928},
{"name":"Hazama Station (Tokyo)","lat":35.640565,"lng":139.293641},
{"name":"Higashi-Nagoyako Station","lat":35.089094,"lng":136.899146},
{"name":"Higashi-Sanjo Station","lat":37.6285132,"lng":138.9736514},
{"name":"Haze Station","lat":35.3112801,"lng":139.5358722},
{"name":"Higashi-Shikagoe Station","lat":43.163783,"lng":142.523478},
{"name":"Higashi-Obama Station","lat":35.485188,"lng":135.781118},
{"name":"Hekinan-Chuo Station","lat":34.8872028,"lng":136.9896546},
{"name":"Higashi-Sendai Station","lat":38.276365,"lng":140.920026},
{"name":"Higashi-Neyagawa Station","lat":34.756379,"lng":135.653294},
{"name":"Heiwadai Station (Chiba)","lat":35.851085,"lng":139.90122},
{"name":"Higashi-Muroran Station","lat":42.34902599999999,"lng":141.025831},
{"name":"Higashi-Okazaki Station","lat":34.952282,"lng":137.166961},
{"name":"Higashi-Shizuoka Station","lat":34.98490950000001,"lng":138.4134384},
{"name":"Hida-Osaka Station","lat":35.950866,"lng":137.256805},
{"name":"Higashino Station (Kyoto)","lat":34.9816264,"lng":135.8165948},
{"name":"Higashi-Shiogama Station","lat":38.325585,"lng":141.031653},
{"name":"Higashi-Narawa Station","lat":34.873924,"lng":136.923207},
{"name":"Hokoku Station","lat":34.876763,"lng":133.556448},
{"name":"Hidariishi Station","lat":33.208877,"lng":129.721952},
{"name":"Hitomaru Station","lat":34.374213,"lng":131.057327},
{"name":"Higashi-Shizunai Station","lat":42.304356,"lng":142.450731},
{"name":"Hiroshima Station","lat":34.3977897,"lng":132.4753403},
{"name":"Higashine Station","lat":38.428415,"lng":140.380816},
{"name":"Heiwajima Station","lat":35.578694,"lng":139.734939},
{"name":"Hishiro Station","lat":33.06588,"lng":131.918815},
{"name":"Higashi-Hiroshima Station","lat":34.389302,"lng":132.759701},
{"name":"Hiwasa Station","lat":33.728915,"lng":134.530537},
{"name":"Higashi-Hanazono Station","lat":34.662596,"lng":135.6264424},
{"name":"Higashi-Ichiki Station","lat":31.655009,"lng":130.347658},
{"name":"Higashi-Ikebukuro-Yonchome Station","lat":35.72549,"lng":139.7200535},
{"name":"Higashi-Iwatsuki Station","lat":35.963349,"lng":139.7122639},
{"name":"Hiushinai Station","lat":35.1692586,"lng":136.8974205},
{"name":"Higashi-Suma Station","lat":34.65524,"lng":135.127566},
{"name":"Higashi-Hagoromo Station","lat":34.5349,"lng":135.442903},
{"name":"Higashi-Kishiwada Station","lat":34.4486833,"lng":135.3851365},
{"name":"Higashi-Koganei Station","lat":35.7015506,"lng":139.523868},
{"name":"Hitachi-Tsuda Station","lat":36.40415,"lng":140.48287},
{"name":"Hitachi Station","lat":36.5857417,"lng":140.6591472},
{"name":"Higashi-ote Station","lat":35.183555,"lng":136.908642},
{"name":"Higashi-Hazu Station","lat":34.7896877,"lng":137.1456418},
{"name":"Higashi-Kaimon Station","lat":31.200952,"lng":130.54979},
{"name":"Hokutetsu-Kanazawa Station","lat":36.5780574,"lng":136.6486596},
{"name":"Higashi-Jujo Station","lat":35.764961,"lng":139.7262447},
{"name":"Heiwadori-Itchome Station","lat":33.847697,"lng":132.774466},
{"name":"Hitoichiba Station","lat":36.2596273,"lng":137.904125},
{"name":"Higashi-Ishinden Station","lat":34.758788,"lng":136.512136},
{"name":"Hiyoshi Station (Kanagawa)","lat":35.5532868,"lng":139.6468632},
{"name":"Higashi-Isahaya Station","lat":32.852924,"lng":130.061681},
{"name":"Hiyodorigoe Station","lat":34.692708,"lng":135.142369},
{"name":"Hiu Station","lat":33.157411,"lng":129.758311},
{"name":"Higashi-Kiyokawa Station","lat":35.39,"lng":139.985898},
{"name":"Hitsu Station","lat":34.532253,"lng":136.270803},
{"name":"Higashi-Hie Station","lat":33.5898091,"lng":130.4313058},
{"name":"Higashi-Kawaguchi Station","lat":35.8760773,"lng":139.7439577},
{"name":"Hitachi-Aoyagi Station","lat":36.383541,"lng":140.484426},
{"name":"Higashi-Himeji Station","lat":34.8266293,"lng":134.689878},
{"name":"Hitachi-Taga Station","lat":36.552034,"lng":140.631359},
{"name":"Higashi-Shinjo Station","lat":35.69793,"lng":139.707409},
{"name":"Higashi-Sukumo Station","lat":32.933605,"lng":132.728663},
{"name":"Higashi-Shinjuku Station","lat":35.69793,"lng":139.707409},
{"name":"Hitachi-omiya Station","lat":36.547132,"lng":140.41262},
{"name":"Higashihonganjimae Station","lat":43.051396,"lng":141.349453},
{"name":"Hitachi-Ogawa Station","lat":36.719194,"lng":140.378587},
{"name":"Hibarigaoka-Hanayashiki Station","lat":34.827254,"lng":135.402869},
{"name":"Higashi-Iwase Station","lat":36.7523874,"lng":137.2305998},
{"name":"Higashi-Toyama Station","lat":36.741052,"lng":137.248858},
{"name":"Higashi-Shinkawa Station","lat":35.6284713,"lng":139.7387597},
{"name":"Hitachi-Konosu Station","lat":36.4725121,"lng":140.4674558},
{"name":"Higashi-Matsue Station (Wakayama)","lat":34.247786,"lng":135.141134},
{"name":"Higashi-Tsuno Station","lat":32.290294,"lng":131.582005},
{"name":"Hitomarumae Station","lat":34.647599,"lng":135.001771},
{"name":"Hiwada Station","lat":37.446411,"lng":140.3883808},
{"name":"Hitoyoshi-Onsen Station","lat":32.21612,"lng":130.753719},
{"name":"Higashi-Mikuni Station","lat":34.741128,"lng":135.498447},
{"name":"Higo-Nishinomura Station","lat":32.202317,"lng":130.808686},
{"name":"Hishima Station","lat":34.3977897,"lng":132.4753403},
{"name":"Higashikogyomae Station","lat":35.0094256,"lng":135.7796702},
{"name":"Higashi-Kitazawa Station","lat":35.665433,"lng":139.673025},
{"name":"Higashi-Umeda Station","lat":34.7009333,"lng":135.4996535},
{"name":"Higashi-Kakogawa Station","lat":34.74566799999999,"lng":134.869224},
{"name":"Hiyoshi Station (Kyoto)","lat":35.1628512,"lng":135.5032378},
{"name":"Higashiyama Station (Hokkaido)","lat":42.061798,"lng":140.605191},
{"name":"Hita Station","lat":33.2326422,"lng":131.6060974},
{"name":"Higashi-Matsudo Station","lat":35.7843004,"lng":139.9006607},
{"name":"Higobashi Station","lat":34.6910127,"lng":135.496447},
{"name":"Higashi-Kaizuka Station","lat":34.4395266,"lng":135.372418},
{"name":"Higashi-Kanazawa Station","lat":36.59355499999999,"lng":136.669693},
{"name":"Higashi-Yamata Station","lat":35.554194,"lng":139.60484},
{"name":"Higo-Nagahama Station","lat":32.690618,"lng":130.560335},
{"name":"Higashi-Murayama Station","lat":35.760889,"lng":139.465899},
{"name":"Hirosaki-Higashikomae Station","lat":40.5991512,"lng":140.4852197},
{"name":"Higashi-Tsuzuki Station","lat":34.79023,"lng":137.5866886},
{"name":"Higashi-Kurume Station","lat":35.76053,"lng":139.533894},
{"name":"Higashikuyakushomae Station","lat":43.078171,"lng":141.364978},
{"name":"Higashi-Takasaki Station","lat":31.841029,"lng":131.065006},
{"name":"Higashi-Ikoma Station","lat":34.6916447,"lng":135.709762},
{"name":"Hiwa Station","lat":34.7161458,"lng":133.6893239},
{"name":"Hitachino-Ushiku Station","lat":36.007352,"lng":140.158247},
{"name":"Higuchi Station (Ibaraki)","lat":36.358196,"lng":139.970526},
{"name":"Higashi-Kaijin Station","lat":35.7063956,"lng":139.9815719},
{"name":"Hitotsugi Station","lat":35.013633,"lng":137.025415},
{"name":"Hitachi-ota Station","lat":36.531275,"lng":140.527666},
{"name":"Higo-ozu Station","lat":32.877436,"lng":130.866191},
{"name":"Higashi-Katsura Station","lat":35.53651,"lng":138.871181},
{"name":"Higashi-Minato Station","lat":34.564702,"lng":135.462595},
{"name":"Hitachi-Daigo Station","lat":36.7709404,"lng":140.3507998},
{"name":"Higashi-Maizuru Station","lat":35.4685454,"lng":135.3948864},
{"name":"Higashi-Washinomiya Station","lat":36.089663,"lng":139.679423},
{"name":"Higashi-Kohama Station","lat":34.618086,"lng":135.492563},
{"name":"Higashi-Totsuka Station","lat":35.43029,"lng":139.556738},
{"name":"Higashi-Nagahara Station","lat":37.566558,"lng":139.948143},
{"name":"Higashi-Mizumaki Station","lat":33.840351,"lng":130.708096},
{"name":"Higashi-Mihama Station","lat":35.614067,"lng":135.985623},
{"name":"Higashi-Matsubara Station","lat":35.6626447,"lng":139.6554771},
{"name":"Higashiyamatoshi Station","lat":35.732891,"lng":139.434403},
{"name":"Higashi-Tokorozawa Station","lat":35.794886,"lng":139.514477},
{"name":"Higashi-Mikkaichi Station","lat":36.8747757,"lng":137.4506019},
{"name":"Higashi-Yamanashi Station","lat":35.6942561,"lng":138.7028196},
{"name":"Higashi-Muko Station","lat":34.953942,"lng":135.70456},
{"name":"Higashi-Mori Station","lat":42.106792,"lng":140.593579},
{"name":"Higashi-Yamoto Station","lat":38.428023,"lng":141.22227},
{"name":"Higashi-Nagasaki Station","lat":35.729954,"lng":139.683243},
{"name":"Higashi-Yamakita Station","lat":35.554194,"lng":139.60484},
{"name":"Hiranda Station","lat":35.164756,"lng":138.168033},
{"name":"Hina Station","lat":35.1616954,"lng":138.7138422},
{"name":"Hirowara Station","lat":31.95773599999999,"lng":130.984788},
{"name":"Higata Station","lat":35.718369,"lng":140.603249},
{"name":"Hirui Station","lat":35.70632200000001,"lng":139.842231},
{"name":"Hirodaifuzokugakko-mae Station","lat":34.37177,"lng":132.464533},
{"name":"Hikawadai Station","lat":35.749562,"lng":139.665466},
{"name":"Hikarigaoka Station","lat":35.758449,"lng":139.628941},
{"name":"Hikari Station","lat":33.973943,"lng":131.914817},
{"name":"Hirohata Station","lat":34.7977509,"lng":134.6281502},
{"name":"Himejima Station","lat":34.704325,"lng":135.458146},
{"name":"Hiregasaki Station","lat":35.8410268,"lng":139.9108631},
{"name":"Himekawa Station (Hokkaido)","lat":42.081381,"lng":140.591565},
{"name":"Hiraoka Station (Nagano)","lat":35.273597,"lng":137.85364},
{"name":"Hiraoka Station (Osaka)","lat":34.6697612,"lng":135.6480726},
{"name":"Hiroden-hatsukaichi Station","lat":34.356908,"lng":132.336434},
{"name":"Hinomiko Station","lat":36.464934,"lng":136.6150261},
{"name":"Hiroden-itsukaichi Station","lat":34.366463,"lng":132.36782},
{"name":"Hiroden-nishi-hiroshima Station","lat":34.396766,"lng":132.427703},
{"name":"Hirano Station (Osaka Municipal Subway)","lat":34.6204998,"lng":135.5489745},
{"name":"Hiroden-ajina Station","lat":34.32304999999999,"lng":132.314187},
{"name":"Hinata Station","lat":35.5823606,"lng":136.6314138},
{"name":"Hira Station (Aichi)","lat":35.2286061,"lng":136.9026902},
{"name":"Hino Station (Tokyo)","lat":35.6793649,"lng":139.3940352},
{"name":"Hime Station","lat":35.3820607,"lng":137.0722201},
{"name":"Hikosan Station","lat":33.500754,"lng":130.868952},
{"name":"Hiroki Station","lat":31.576631,"lng":130.504507},
{"name":"Hinode Station","lat":35.649187,"lng":139.759129},
{"name":"Himi Station","lat":36.8494809,"lng":136.9906928},
{"name":"Hirosaki-Gakuindai-mae Station","lat":40.583415,"lng":140.470617},
{"name":"Himeji Station","lat":34.8266293,"lng":134.689878},
{"name":"Hirono-Gorufujomae Station","lat":34.770697,"lng":135.023154},
{"name":"Hiraiwa Station","lat":36.8870262,"lng":137.8652519},
{"name":"Hirosaki Station","lat":40.5991512,"lng":140.4852197},
{"name":"Hinaga Station (Mie)","lat":34.955935,"lng":136.604315},
{"name":"Hiragishi Station (Sapporo, Hokkaido)","lat":43.034538,"lng":141.368314},
{"name":"Hiragishi Station (Akabira, Hokkaido)","lat":43.541307,"lng":142.125268},
{"name":"Himekawa Station (Niigata)","lat":37.0203464,"lng":137.8608632},
{"name":"Hirose-Yacho-no-Mori Station","lat":36.146148,"lng":139.351894},
{"name":"Hirakura Station","lat":39.264576,"lng":141.595752},
{"name":"Hirako Station","lat":34.912971,"lng":133.10021},
{"name":"Hiranai Station","lat":40.918166,"lng":140.9130039},
{"name":"Hirano Station (Fukushima)","lat":37.8053703,"lng":140.4427733},
{"name":"Hiramatsu Station","lat":34.7034086,"lng":137.7349545},
{"name":"Hirano Station (Hyogo)","lat":34.8689632,"lng":135.4174175},
{"name":"Hirama Station","lat":35.560556,"lng":139.671084},
{"name":"Hiraki Station","lat":33.09732,"lng":130.453},
{"name":"Hokkaido-Iryodaigaku Station","lat":43.231075,"lng":141.550063},
{"name":"Higashi-Fushimi Station","lat":35.7286669,"lng":139.5642335},
{"name":"Hodatsu Station","lat":36.8203501,"lng":136.762213},
{"name":"Heta Station","lat":34.072538,"lng":131.704583},
{"name":"Hibari Station","lat":36.493676,"lng":136.61484},
{"name":"Hidaka-Horobetsu Station","lat":42.14236,"lng":142.834179},
{"name":"Hayaguchi Station","lat":40.2711571,"lng":140.4486152},
{"name":"Hayatsukikazumi Station","lat":36.7841047,"lng":137.3722365},
{"name":"Higashi-Fukushima Station","lat":37.799852,"lng":140.477336},
{"name":"Higashi-Narita Station","lat":35.769718,"lng":140.387182},
{"name":"Higashi-Funabashi Station","lat":35.699771,"lng":140.004051},
{"name":"Hoki-Mizoguchi Station","lat":35.348206,"lng":133.435276},
{"name":"Higashi-Takikawa Station","lat":43.573881,"lng":141.980224},
{"name":"Hoki-Daisen Station","lat":35.429556,"lng":133.383334},
{"name":"Hayabusa Station","lat":35.3887523,"lng":134.2700848},
{"name":"Hiyoshicho Station","lat":34.977032,"lng":138.391271},
{"name":"Hommachi Station","lat":34.68200660000001,"lng":135.4986274},
{"name":"Hofu Station","lat":34.053399,"lng":131.568457},
{"name":"Hommachi-Sanchome Station","lat":34.68200660000001,"lng":135.4986274},
{"name":"Hommachi-Yonchome Station","lat":34.68200660000001,"lng":135.4986274},
{"name":"Higashi-Nakano Station","lat":35.7062291,"lng":139.6838102},
{"name":"Heiwa Station","lat":43.0469859,"lng":141.437989},
{"name":"Heguri Station","lat":34.6292623,"lng":135.7043274},
{"name":"Higashi-Fusamoto Station","lat":35.240579,"lng":140.240299},
{"name":"Higashi-Amagi Station","lat":33.062185,"lng":130.464195},
{"name":"Higashi-Gyoda Station","lat":36.1472493,"lng":139.4684618},
{"name":"Hommataga Station","lat":34.652668,"lng":131.827027},
{"name":"Hekinan Station","lat":34.873981,"lng":136.985563},
{"name":"Hayakita Station","lat":42.76514,"lng":141.814067},
{"name":"Higashi-Furen Station","lat":44.316779,"lng":142.462992},
{"name":"Hibayama Station","lat":34.9661818,"lng":133.1232047},
{"name":"Hokusei Station","lat":44.441513,"lng":142.4278479},
{"name":"Hayuka Station","lat":34.2411336,"lng":133.902012},
{"name":"Hemi Station","lat":35.280642,"lng":139.652486},
{"name":"Hida-Furukawa Station","lat":36.2367259,"lng":137.1896028},
{"name":"Higashi-Funaoka Station","lat":38.050082,"lng":140.789826},
{"name":"Hazama Station (Kagawa)","lat":34.209624,"lng":133.8472547},
{"name":"Higashi-Sapporo Station","lat":43.051703,"lng":141.384728},
{"name":"Hido Station","lat":34.673845,"lng":136.151781},
{"name":"Hibarigaoka Station (Hokkaido)","lat":43.032263,"lng":141.4645001},
{"name":"Higashi-Agano Station","lat":35.8920894,"lng":139.2606605},
{"name":"Hibiya Station","lat":35.67489030000001,"lng":139.7596051},
{"name":"Higashi-Nakama Station","lat":35.7062291,"lng":139.6838102},
{"name":"Higashi-Takasu Station","lat":34.39185,"lng":132.420259},
{"name":"Higashicho Station","lat":42.156662,"lng":142.788682},
{"name":"Higashi-Komoro Station","lat":36.317104,"lng":138.432216},
{"name":"Higashi-Onomichi Station","lat":34.435001,"lng":133.233129},
{"name":"Higashisono Station","lat":34.9816264,"lng":135.8165948},
{"name":"Higashi-Rinkan Station","lat":35.520138,"lng":139.43905},
{"name":"Heiwadori Station","lat":33.883105,"lng":130.8812232},
{"name":"Higashi-Sano Station","lat":34.4162543,"lng":135.349907},
{"name":"Higashi-Ainonai Station","lat":43.8054392,"lng":143.810177},
{"name":"Higashi-Rokusen Station","lat":44.06861199999999,"lng":142.388099},
{"name":"Higashi-Sakata Station","lat":38.907622,"lng":139.8751991},
{"name":"Higashinodanchi Station","lat":34.6965607,"lng":135.5340864},
{"name":"Hida-Hagiwara Station","lat":35.874484,"lng":137.213811},
{"name":"Higashi-osaki Station","lat":34.649695,"lng":135.577665},
{"name":"Hikime Station","lat":39.629569,"lng":141.838824},
{"name":"Hitotsubashigakuen Station","lat":35.7219969,"lng":139.4801115},
{"name":"Higashi-Mukojima Station","lat":35.724319,"lng":139.8193429},
{"name":"Hitoyoshi Station","lat":32.21612,"lng":130.753719},
{"name":"Hijirikogen Station","lat":36.455023,"lng":138.047633},
{"name":"Hisanohama Station","lat":37.142581,"lng":140.995683},
{"name":"Higashi-Kushiro Station","lat":42.99514600000001,"lng":144.411485},
{"name":"Higashi-Yuki Station","lat":36.296618,"lng":139.891313},
{"name":"Hokuno Station","lat":35.930218,"lng":136.829676},
{"name":"Hikifune Station","lat":35.71832,"lng":139.816649},
{"name":"Higashi-Miyahara Station","lat":35.942678,"lng":139.618212},
{"name":"Higuchi Station (Saitama)","lat":36.131088,"lng":139.122525},
{"name":"Higashi-Yokota Station","lat":35.38614099999999,"lng":140.03595},
{"name":"Higashi-Yamashiro Station","lat":33.277983,"lng":129.845995},
{"name":"Higashi-Tomioka Station","lat":36.2608419,"lng":138.9018562},
{"name":"Higashi-Taku Station","lat":33.285404,"lng":130.143135},
{"name":"Hikoneguchi Station","lat":35.254754,"lng":136.258335},
{"name":"Higashi-Nakayama Station","lat":35.714491,"lng":139.952638},
{"name":"Hirata Station (Shiga)","lat":35.110184,"lng":136.146599},
{"name":"Hirakatashi Station","lat":34.815733,"lng":135.6487946},
{"name":"Higashi-Nagasawa Station","lat":35.729954,"lng":139.683243},
{"name":"Higashi-Ishiguro Station","lat":36.576174,"lng":136.89859},
{"name":"Higashiyama Station (Okayama)","lat":34.656213,"lng":133.942643},
{"name":"Hinoharu Station","lat":35.790635,"lng":138.394323},
{"name":"Hikone-Serikawa Station","lat":35.2622415,"lng":136.2609689},
{"name":"Higashi-Mito Station","lat":36.361739,"lng":140.51598},
{"name":"Higashiyama Station (Nara)","lat":34.6482093,"lng":135.7083699},
{"name":"Higashi-Kokura Station","lat":33.8869679,"lng":130.8825758},
{"name":"Hijidai Station","lat":34.1670964,"lng":133.6903083},
{"name":"Higashi-Kanagawa Station","lat":35.4779627,"lng":139.6333469},
{"name":"Higashi-Yodogawa Station","lat":34.739406,"lng":135.504113},
{"name":"Higo-Tanoura Station","lat":32.350656,"lng":130.504682},
{"name":"Higashi-Koge Station","lat":35.4289089,"lng":134.2600325},
{"name":"Higo-Koda Station","lat":32.47511600000001,"lng":130.612363},
{"name":"Higashi-Urawa Station","lat":35.8641322,"lng":139.7046395},
{"name":"Higashi-Yatsuo Station","lat":36.589596,"lng":137.175065},
{"name":"Higo-Ikura Station","lat":32.91326,"lng":130.586743},
{"name":"Hirayamajoshikoen Station","lat":35.6473373,"lng":139.3799404},
{"name":"Hira Station (Shiga)","lat":35.219972,"lng":135.943836},
{"name":"Higashiyamakoen Station (Aichi)","lat":35.1604776,"lng":136.9728264},
{"name":"Higiri Station","lat":34.8390302,"lng":138.1224045},
{"name":"Hiroo Station","lat":35.6508413,"lng":139.722295},
{"name":"Hiji Station","lat":33.369116,"lng":131.542729},
{"name":"Hisaya-odori Station","lat":35.173741,"lng":136.9077766},
{"name":"Hiketa Station","lat":33.5902414,"lng":130.4212219},
{"name":"Higashi-Tarumi Station","lat":34.6291987,"lng":135.0629632},
{"name":"Higo-Futami Station","lat":32.419815,"lng":130.549315},
{"name":"Hirono Station (Fukushima)","lat":37.211628,"lng":140.998652},
{"name":"Higashi-Matsusaka Station","lat":34.56553299999999,"lng":136.546084},
{"name":"Hirahara Station","lat":36.308633,"lng":138.453825},
{"name":"Hirokoshita Station","lat":36.752517,"lng":137.0206},
{"name":"Hirano Station (JR West)","lat":34.6307624,"lng":135.5516694},
{"name":"Higashi-Koenji Station","lat":35.69792899999999,"lng":139.658274},
{"name":"Hiroshima Port Station","lat":34.3476653,"lng":132.4435534},
{"name":"Hiro Station","lat":35.6508413,"lng":139.722295},
{"name":"Hijiyama-bashi Station","lat":34.383213,"lng":132.468616},
{"name":"Higashi-Koizumi Station","lat":36.259665,"lng":139.428493},
{"name":"Hinaga Station (Aichi)","lat":34.961485,"lng":136.8320769},
{"name":"Hiraiso Station","lat":36.357575,"lng":140.607639},
{"name":"Hirahata Station","lat":34.6065792,"lng":135.7825883},
{"name":"Hiro-Godo Station","lat":35.419827,"lng":136.602104},
{"name":"Hiranumabashi Station","lat":35.4595591,"lng":139.6162066},
{"name":"Higashi-Zushi Station","lat":35.297389,"lng":139.578381},
{"name":"Hirafu Station","lat":42.84889709999999,"lng":140.72255},
{"name":"Hirayama Station","lat":35.27429300000001,"lng":140.064563},
{"name":"Hirakatakoen Station","lat":34.8113639,"lng":135.6394481},
{"name":"Hiragi Station","lat":34.2721032,"lng":134.1311624},
{"name":"Hinase Station","lat":34.735212,"lng":134.276388},
{"name":"Hirahari Station","lat":35.1227784,"lng":137.0068628},
{"name":"Hirabayashi Station (Niigata)","lat":38.150115,"lng":139.45902},
{"name":"Hineno Station","lat":34.3901572,"lng":135.3306918},
{"name":"Hirokoji Station (Mie)","lat":34.7670713,"lng":136.1343629},
{"name":"Hirafuku Station","lat":35.043623,"lng":134.371564},
{"name":"Hiratsuka Station","lat":35.327351,"lng":139.349038},
{"name":"Hiraishi Station","lat":39.291655,"lng":140.628391},
{"name":"Hirono Station (Hyogo)","lat":34.928155,"lng":135.191273},
{"name":"Hino Station (Shiga)","lat":35.0122975,"lng":136.2196038},
{"name":"Hinatayama Station","lat":31.763504,"lng":130.749786},
{"name":"Hirakawa Station","lat":37.130199,"lng":140.21275},
{"name":"Hayashizaki Station","lat":40.675432,"lng":140.480417},
{"name":"Hesaka Station","lat":34.438457,"lng":132.49114},
{"name":"Hikiji Station","lat":34.8266293,"lng":134.689878},
{"name":"Hioka Station","lat":34.778636,"lng":134.857169},
{"name":"Hayahoshi Station","lat":36.66408699999999,"lng":137.160424},
{"name":"Hommachi-Rokuchome Station","lat":33.853391,"lng":132.758717},
{"name":"Hayakawa Station","lat":35.238689,"lng":139.145003},
{"name":"Higashi-Namerikawa Station","lat":36.7884701,"lng":137.3786125},
{"name":"Higashi-Noshiro Station","lat":40.191588,"lng":140.065646},
{"name":"Higashi-Tengachaya Station","lat":34.632612,"lng":135.508533},
{"name":"Hirakida Station","lat":38.094538,"lng":139.427831},
{"name":"Higashi-ojima Station","lat":35.689907,"lng":139.847509},
{"name":"Hikarinomori Station","lat":32.8579664,"lng":130.7867121},
{"name":"Hizen-oura Station","lat":32.975218,"lng":130.20722},
{"name":"Higashi-Tondendori Station","lat":43.030954,"lng":141.34826},
{"name":"Hikosaki Station","lat":40.5991512,"lng":140.4852197},
{"name":"Hikone Station","lat":35.272169,"lng":136.263278},
{"name":"Hiradobashi Station","lat":34.6910127,"lng":135.496447},
{"name":"Hokuhoku-oshima Station","lat":37.14698300000001,"lng":138.509508},
{"name":"Hokuseichuokoenguchi Station","lat":35.0605757,"lng":136.5661668},
{"name":"Hobo Station","lat":35.046952,"lng":136.565593},
{"name":"Hiratacho Station","lat":34.875137,"lng":136.542407},
{"name":"Hayashima Station","lat":34.6022115,"lng":133.8332574},
{"name":"Higashi-Karatsu Station","lat":33.439467,"lng":129.997033},
{"name":"Higashi-Ikebukuro Station","lat":35.7259,"lng":139.718824},
{"name":"Hekikai-Furui Station","lat":34.9368781,"lng":137.0908706},
{"name":"Higashi-Oiwake Station","lat":42.90298749999999,"lng":141.8330372},
{"name":"Hiratsuto Station","lat":39.62356,"lng":141.510936},
{"name":"Higashino Station (Gifu)","lat":35.446316,"lng":137.428726},
{"name":"Higashi-Nakagami Station","lat":35.706254,"lng":139.384797},
{"name":"Hommachi-Gochome Station","lat":34.68200660000001,"lng":135.4986274},
{"name":"Hirokawa Beach Station","lat":34.0131181,"lng":135.1635814},
{"name":"Hirabayashi Station (Osaka)","lat":34.6106918,"lng":135.4586134},
{"name":"Higashi-Matsuyama Station","lat":36.0348327,"lng":139.4016022},
{"name":"Hizen-Kashima Station","lat":33.1134134,"lng":130.0980585},
{"name":"Hinuma Station","lat":36.2658573,"lng":140.5271846},
{"name":"Himeji-Bessho Station","lat":34.805521,"lng":134.7531675},
{"name":"Heisei Station","lat":32.781472,"lng":130.703292},
{"name":"Higashi-Nakatsu Station","lat":33.5874599,"lng":131.2390329},
{"name":"Higashiyama Station (Kyoto)","lat":35.0094256,"lng":135.7796702},
{"name":"Higashiura Station","lat":34.9491933,"lng":136.9703327},
{"name":"Hijiyama-shita Station","lat":34.3865175,"lng":132.4707525},
{"name":"Higashi-Shinmachi Station","lat":34.9059687,"lng":137.5028093},
{"name":"Higashi-Okayama Station","lat":34.6856479,"lng":133.9881769},
{"name":"Hinobori Station","lat":35.2764079,"lng":132.931358},
{"name":"Himematsu Station","lat":34.624141,"lng":135.503117},
{"name":"Hitachinai Station","lat":36.39468,"lng":140.524589},
{"name":"Higashi-Taragi Station","lat":32.272228,"lng":130.950755},
{"name":"Hino Station (Nagano)","lat":36.65603400000001,"lng":138.288326},
{"name":"Hirota Station","lat":37.54917,"lng":139.9332561},
{"name":"Hizen-Asahi Station","lat":33.349792,"lng":130.496045},
{"name":"Hibarigaoka Station (Tokyo)","lat":35.75142,"lng":139.545782},
{"name":"Hiroden-honsha-mae Station","lat":34.377463,"lng":132.458117},
{"name":"Hidariseki Station","lat":40.91752,"lng":140.665804},
{"name":"Hayadori Station","lat":37.921106,"lng":139.178139},
{"name":"Hokota Station","lat":36.1524421,"lng":140.5202765},
{"name":"Higashi-Nikkawa Station","lat":36.422059,"lng":139.267751},
{"name":"Hinatawada Station","lat":35.788518,"lng":139.229557},
{"name":"Hayase Station","lat":35.7622163,"lng":139.8249474},
{"name":"Hinodecho Station","lat":35.4454183,"lng":139.6267859},
{"name":"Hisai Station","lat":34.6754603,"lng":136.4776659},
{"name":"Hirooka Station","lat":36.1482003,"lng":137.949609},
{"name":"Hirokoji Station (Toyama)","lat":36.752517,"lng":137.0206},
{"name":"Heiwadai Station (Tokyo)","lat":35.757561,"lng":139.654328},
{"name":"Hidaka-Mombetsu Station","lat":42.48121099999999,"lng":142.072588},
{"name":"Hodokubo Station","lat":35.655622,"lng":139.410908},
{"name":"Hiroden-miyajima-guchi Station","lat":34.312079,"lng":132.304466},
{"name":"Hirata Station (Kochi)","lat":32.955521,"lng":132.795296},
{"name":"Higashi-ome Station","lat":35.789797,"lng":139.272804},
{"name":"Hiroshima Station (Hiroden)","lat":34.3977897,"lng":132.4753403},
{"name":"Hirai Station (Ehime)","lat":33.8085599,"lng":132.8289215},
{"name":"Hiraka Station","lat":40.584973,"lng":140.5610261},
{"name":"Higashi-Kunebetsu Station","lat":41.8260497,"lng":140.6798552},
{"name":"Hirata Station (Nagano)","lat":36.1915582,"lng":137.962517},
{"name":"Hazakawa Station","lat":34.536475,"lng":133.879319},
{"name":"Higashi-Kanai Station","lat":38.277069,"lng":140.302524},
{"name":"Heijo Station","lat":34.7018271,"lng":135.7855193},
{"name":"Higashi-Fukuma Station","lat":33.773994,"lng":130.510949},
{"name":"Hirose-dori Station","lat":38.262782,"lng":140.875503},
{"name":"Higashi-Kariya Station","lat":34.9773212,"lng":137.0437416},
{"name":"Hirai Station (Tokyo)","lat":35.70632200000001,"lng":139.842231},
{"name":"Higoshi Station","lat":35.1628512,"lng":135.5032378},
{"name":"Hayashi Station","lat":36.704194,"lng":136.9990473},
{"name":"Heita Station","lat":39.245754,"lng":141.886006},
{"name":"Homi Station","lat":35.136677,"lng":137.134513},
{"name":"Hayashino Station","lat":35.0136692,"lng":134.1509093},
{"name":"Hebita Station","lat":38.4384153,"lng":141.2774449},
{"name":"Higashi-Shinminato Station","lat":36.777878,"lng":137.098953},
{"name":"Higashi-Monzen Station","lat":35.53656,"lng":139.734525},
{"name":"Higashi-Tsuyama Station","lat":35.058669,"lng":134.031816},
{"name":"Hibino Station (Nagoya, Aichi)","lat":35.132728,"lng":136.893089},
{"name":"Higashi-Nemuro Station","lat":43.3236798,"lng":145.5972012},
{"name":"Higashi-Menda Station","lat":32.250174,"lng":130.913009},
{"name":"Higashi-Saigawa-Sanshiro Station","lat":33.661515,"lng":130.949052},
{"name":"Higashi-Nihombashi Station","lat":35.6921,"lng":139.7847495},
{"name":"Hirataki Station","lat":43.884968,"lng":143.181649},
{"name":"Hiroto Station","lat":35.651519,"lng":139.72216},
{"name":"Higashiyamakoen Station (Tottori)","lat":35.430694,"lng":133.351892},
{"name":"Hinaguonsen Station","lat":32.436147,"lng":130.582034},
{"name":"Higashi-Shiroishi Station","lat":38.035052,"lng":140.650894},
{"name":"Higashi-Kashiwazaki Station","lat":37.372959,"lng":138.565466},
{"name":"Hideshio Station","lat":36.049065,"lng":137.894718},
{"name":"Hida-Miyada Station","lat":35.928368,"lng":137.235446},
{"name":"Himemiya Station","lat":36.004452,"lng":139.738616},
{"name":"Hizen-Iida Station","lat":33.055653,"lng":130.158778},
{"name":"Higashi-obuke Station","lat":39.902599,"lng":141.142121},
{"name":"Higashi-Matsue Station (Shimane)","lat":35.445438,"lng":133.128579},
{"name":"Higashi-Shingi Station","lat":33.5645295,"lng":133.5902583},
{"name":"Higashi-Moro Station","lat":35.9468674,"lng":139.3153868},
{"name":"Hiroshima Freight Terminal Station","lat":34.3977897,"lng":132.4753403},
{"name":"Hiraizumi Station","lat":38.988122,"lng":141.11778},
{"name":"Higashi-Horonuka Station","lat":0,"lng":0},
{"name":"Higashi-Hatcho Station","lat":0,"lng":0},
{"name":"Hommokufuto Station","lat":0,"lng":0},
{"name":"Hofu-Kamotsu Station","lat":0,"lng":0},
{"name":"Himejikamotsu Station","lat":0,"lng":0},
