{"name":"Shimotoppu Station","lat":43.502552,"lng":141.8554619},
{"name":"Shimotogari Station","lat":35.1296051,"lng":138.8952917},
{"name":"Shimotsu Station","lat":34.10883,"lng":135.14561},
{"name":"Shimotsuke-Hanaoka Station","lat":36.649998,"lng":140.008677},
{"name":"Shimotsuke-osawa Station","lat":36.68593,"lng":139.732672},
{"name":"Shimoura Station","lat":34.0676971,"lng":134.4210505},
{"name":"Shimotsuma Station","lat":36.1819884,"lng":139.9644646},
{"name":"Shimo-Uwa Station","lat":33.349776,"lng":132.531058},
{"name":"Shimo-Wachi Station","lat":34.7980117,"lng":132.9254347},
{"name":"Shimo-Yakuno Station","lat":35.319967,"lng":134.998638},
{"name":"Shimoyama Station (Kyoto)","lat":35.212378,"lng":135.422521},
{"name":"Shimo-Yamaguchi Station","lat":35.779442,"lng":139.441151},
{"name":"Shimoyamamura Station","lat":35.504209,"lng":137.839743},
{"name":"Shimo-Yamato Station","lat":33.58179,"lng":130.308001},
{"name":"Shimoyuino Station","lat":35.4979716,"lng":138.8036092},
{"name":"Shimoyama Station (Kochi)","lat":33.4581263,"lng":133.9481657},
{"name":"Shimoyui Station","lat":35.4979716,"lng":138.8036092},
{"name":"Shimo-Yoshida Station","lat":35.4979716,"lng":138.8036092},
{"name":"Shimpu Station","lat":35.73686500000001,"lng":138.433128},
{"name":"Shimo-Yuzawa Station","lat":39.197496,"lng":140.502463},
{"name":"Shinagawa Station","lat":35.6284713,"lng":139.7387597},
{"name":"Shinagawa Seaside Station","lat":35.6094491,"lng":139.7496978},
{"name":"Shimukappu Station","lat":42.993077,"lng":142.400027},
{"name":"Shimurasakaue Station","lat":35.7758147,"lng":139.6953524},
{"name":"Shinainuma Station","lat":35.6284713,"lng":139.7387597},
{"name":"Shin-Ainoki Station","lat":36.703226,"lng":137.34224},
{"name":"Shimura Sanchome Station","lat":35.7775286,"lng":139.6860842},
{"name":"Shin-Akitsu Station","lat":35.77811,"lng":139.493563},
{"name":"Shin-Aomori Station","lat":40.8284185,"lng":140.6935698},
{"name":"Shin-Asahi Station","lat":35.355515,"lng":136.035517},
{"name":"Shinano-Arai Station","lat":36.229074,"lng":137.949511},
{"name":"Shin-Asahikawa Station","lat":43.780175,"lng":142.3847011},
{"name":"Shinano-Kawakami Station","lat":35.9759616,"lng":138.527382},
{"name":"Shin-Anjo Station","lat":34.9871227,"lng":137.0851695},
{"name":"Shinano-Kawashima Station","lat":36.013571,"lng":137.971851},
{"name":"Shinano-Kizaki Station","lat":36.535647,"lng":137.846203},
{"name":"Shinano-Asano Station","lat":36.807319,"lng":138.19705},
{"name":"Shinano-Kokubunji Station","lat":36.37879960000001,"lng":138.2732787},
{"name":"Shinanomachi Station","lat":35.6800602,"lng":139.7203199},
{"name":"Shinano-Moriue Station","lat":36.711044,"lng":137.871666},
{"name":"Shinano-Oiwake Station","lat":36.3361427,"lng":138.5596888},
{"name":"Shinano-Shiratori Station","lat":36.98353,"lng":138.502877},
{"name":"Shinano-Sakai Station","lat":35.884927,"lng":138.275413},
{"name":"Shinano-Matsukawa Station","lat":36.4252701,"lng":137.858277},
{"name":"Shinano-omachi Station","lat":36.4999196,"lng":137.8612609},
{"name":"Shinano-Taira Station","lat":36.884982,"lng":138.378447},
{"name":"Shinano-Takehara Station","lat":36.76108,"lng":138.393618},
{"name":"Shinano-Tokiwa Station","lat":36.4672275,"lng":137.8472269},
{"name":"Shinano-Yoshida Station","lat":36.667447,"lng":138.220831},
{"name":"Shin-Chiba Station","lat":35.612451,"lng":140.108601},
{"name":"Shindembaru Station","lat":33.6955636,"lng":131.0081608},
{"name":"Shindaita Station","lat":35.6626067,"lng":139.6605287},
{"name":"Shinden Station (Kyoto)","lat":34.87423,"lng":135.780695},
{"name":"Shinchi Station","lat":37.8792273,"lng":140.9256506},
{"name":"Shindo Station","lat":34.8211446,"lng":136.2065406},
{"name":"Shinden Station (Saitama)","lat":35.85411,"lng":139.795395},
{"name":"Shin-Fuji Station (Hokkaido)","lat":43.0017494,"lng":144.3499688},
{"name":"Shindo-Higashi Station","lat":43.104807,"lng":141.369087},
{"name":"Shin-Fujiwara Station","lat":36.852467,"lng":139.73297},
{"name":"Shin-Fuji Station (Shizuoka)","lat":35.141965,"lng":138.663603},
{"name":"Shin-Egota Station","lat":35.732592,"lng":139.670439},
{"name":"Shin-Fukae Station","lat":34.6681193,"lng":135.5530124},
{"name":"Shin-Fukui Station","lat":36.064938,"lng":136.22678},
{"name":"Shin-Fukushima Station","lat":34.695105,"lng":135.485644},
{"name":"Shingai Station","lat":33.6496,"lng":133.695752},
{"name":"Shinge Station","lat":34.37222,"lng":135.298921},
{"name":"Shingashi Station","lat":35.891042,"lng":139.497253},
{"name":"Shingi Station","lat":33.562191,"lng":133.586764},
{"name":"Shin-Funabashi Station","lat":35.7111782,"lng":139.979825},
{"name":"Shingo Station","lat":36.171261,"lng":139.51049},
{"name":"Shingu Station","lat":33.7251509,"lng":135.9941471},
{"name":"Shingu-Chuo Station","lat":33.711777,"lng":130.449262},
{"name":"Shin-Hakodate-Hokuto Station","lat":41.9046983,"lng":140.6483763},
{"name":"Shin-Hamamatsu Station","lat":34.7036972,"lng":137.7324973},
{"name":"Shin-Hanamaki Station","lat":39.40584370000001,"lng":141.1731474},
{"name":"Shin-Hashima Station","lat":35.3157471,"lng":136.6863967},
{"name":"Shin-Hirano Station","lat":35.473024,"lng":135.807366},
{"name":"Shin-Hakushima Station","lat":34.40846000000001,"lng":132.461172},
{"name":"Shin-Hiro Station","lat":34.232066,"lng":132.614413},
{"name":"Shin-Hikida Station","lat":35.5940079,"lng":136.10059},
{"name":"Shin-Hosono Station","lat":34.759966,"lng":135.792754},
{"name":"Shin-Hokota Station","lat":36.1524421,"lng":140.5202765},
{"name":"Shin-Imamiya Station","lat":34.6497931,"lng":135.5015478},
{"name":"Shin-ichi Station","lat":34.5543316,"lng":133.2695051},
{"name":"Shin-Iizuka Station","lat":33.6414331,"lng":130.6930641},
{"name":"Shin-Imamiya-Ekimae Station","lat":34.6497931,"lng":135.5015478},
{"name":"Shin-Ishikiri Station","lat":34.680055,"lng":135.640631},
{"name":"Shin-Isesaki Station","lat":36.318069,"lng":139.201788},
{"name":"Shin-Itabashi Station","lat":35.7489774,"lng":139.7209279},
{"name":"Shin-Itami Station","lat":34.772289,"lng":135.415536},
{"name":"Shin-Inokuchi Station","lat":34.3756794,"lng":132.3921348},
{"name":"Shinji Station","lat":35.406808,"lng":132.9087897},
{"name":"Shin-Iwakuni Station","lat":34.1646322,"lng":132.149436},
{"name":"Shinjo Station","lat":38.762735,"lng":140.306195},
{"name":"Shinjohara Station","lat":34.7232615,"lng":137.4847403},
{"name":"Shinjuku Station","lat":35.6894072,"lng":139.7003058},
{"name":"Shinjo-Tanaka Station","lat":36.697974,"lng":137.241083},
{"name":"Shinjuku Sanchome Station","lat":35.6907982,"lng":139.7063538},
{"name":"Shinjuku-Nishiguchi Station","lat":35.693292,"lng":139.699132},
{"name":"Shinjuku-gyoemmae Station","lat":35.688855,"lng":139.708831},
{"name":"Shin-Kamagaya Station","lat":35.777797,"lng":139.99991},
{"name":"Shinkaichi Station","lat":34.676572,"lng":135.169034},
{"name":"Shin-Kami Station","lat":34.627559,"lng":135.567722},
{"name":"Shin-Kani Station","lat":35.4228087,"lng":137.0556333},
{"name":"Shin-Kambara Station","lat":35.119461,"lng":138.6082664},
{"name":"Shin-Kanaya Station","lat":34.8261526,"lng":138.1370728},
{"name":"Shin-Kano Station","lat":35.4228087,"lng":137.0556333},
{"name":"Shin-Kanaoka Station","lat":34.567259,"lng":135.514896},
{"name":"Shin-Kashiwa Station","lat":35.838172,"lng":139.966909},
{"name":"Shin-Kanuma Station","lat":36.557001,"lng":139.744732},
{"name":"Shinkawa Station (Ehime)","lat":33.7718511,"lng":132.7041315},
{"name":"Shinkawabashi Station","lat":34.6750572,"lng":135.5003772},
{"name":"Shinkawa Station (Hokkaido)","lat":43.098501,"lng":141.323647},
{"name":"Shinkawacho Station","lat":35.438708,"lng":139.643008},
{"name":"Shinkawamachi Station","lat":34.8964618,"lng":136.9901848},
{"name":"Shin-Kemigawa Station","lat":35.651751,"lng":140.073325},
{"name":"Shin-Kawasaki Station","lat":35.5513742,"lng":139.6717449},
{"name":"Shin-Kiryu Station","lat":36.395036,"lng":139.320053},
{"name":"Shin-Kisogawa Station","lat":35.3420752,"lng":136.7794665},
{"name":"Shin-Kiba Station","lat":35.6459022,"lng":139.8266952},
{"name":"Shin-Kobe Station","lat":34.7063696,"lng":135.1954468},
{"name":"Shin-Kiyosu Station","lat":35.21135599999999,"lng":136.835425},
{"name":"Shin-Koenji Station","lat":35.697845,"lng":139.64847},
{"name":"Shin-Koga Station","lat":36.192652,"lng":139.686919},
{"name":"Shin-Kodaira Station","lat":35.730893,"lng":139.470484},
{"name":"Shin-Koshigaya Station","lat":35.87519,"lng":139.789867},
{"name":"Shin-Koganei Station","lat":35.695926,"lng":139.526786},
{"name":"Shin-Koiwa Station","lat":35.7167901,"lng":139.8582736},
{"name":"Shin-Kotoni Station","lat":43.1129512,"lng":141.3350081},
{"name":"Shin-Koyanose Station","lat":33.783469,"lng":130.724513},
{"name":"Shin-Koyasu Station","lat":35.4868363,"lng":139.6540663},
{"name":"Shin-Koshinzuka Station","lat":35.7410015,"lng":139.730775},
{"name":"Shin-Kurashiki Station","lat":34.5649655,"lng":133.6787011},
{"name":"Shin-Kurobe Station","lat":36.873154,"lng":137.480916},
{"name":"Shinkyudaigakumae Station","lat":35.17955,"lng":135.489433},
{"name":"Shin-Maiko Station","lat":34.9495596,"lng":136.8286347},
{"name":"Shin-Maebashi Station","lat":36.37903,"lng":139.04691},
{"name":"Shin-Matsuda Station","lat":35.3468352,"lng":139.1374071},
{"name":"Shin-Matsudo Station","lat":35.826075,"lng":139.919687},
{"name":"Shin-Maruko Station","lat":35.5805941,"lng":139.6619306},
{"name":"Shin-Minamata Station","lat":32.2105722,"lng":130.4286011},
{"name":"Shin-Mikawashima Station","lat":35.737317,"lng":139.773819},
{"name":"Shin-Miyakawa Station","lat":36.7176285,"lng":137.3510574},
{"name":"Shin-Mobara Station","lat":35.449474,"lng":140.299675},
{"name":"Shin-Moriya Station","lat":35.966408,"lng":139.985736},
{"name":"Shin-Moriyama Station","lat":35.2073034,"lng":136.9511999},
{"name":"Shinnaka Station","lat":35.400085,"lng":136.833779},
{"name":"Shin-Misato Station","lat":35.858389,"lng":139.869639},
{"name":"Shin-Nagata Station","lat":34.6575291,"lng":135.145352},
{"name":"Shin-Nakano Station","lat":35.6976549,"lng":139.6698209},
{"name":"Shin-Nanyo Station","lat":34.069679,"lng":131.769133},
{"name":"Shin-Nihombashi Station","lat":35.689016,"lng":139.774265},
{"name":"Shinnittetsumae Station","lat":35.0349404,"lng":136.899297},
{"name":"Shin-Nishikanazawa Station","lat":36.553141,"lng":136.6223852},
{"name":"Shinnyu Station","lat":33.763415,"lng":130.714098},
{"name":"Shin-Nishiwaki Station","lat":34.9778779,"lng":134.977223},
{"name":"Shin-Narashino Station","lat":35.667386,"lng":140.012968},
{"name":"Shin-Ochanomizu Station","lat":35.696932,"lng":139.765432},
{"name":"Shinodayama Station","lat":34.50007,"lng":135.432822},
{"name":"Shin-Okachimachi Station","lat":35.706931,"lng":139.783041},
{"name":"Shinohara Station (Shiga)","lat":35.099406,"lng":136.072079},
{"name":"Shinobugaoka Station","lat":34.746047,"lng":135.645545},
{"name":"Shin-ohirashita Station","lat":36.33902399999999,"lng":139.701633},
{"name":"Shinomiya Station","lat":34.991801,"lng":135.824132},
{"name":"Shin-okubo Station","lat":35.7013008,"lng":139.7000494},
{"name":"Shinohara Station (Kochi)","lat":33.577049,"lng":133.631263},
{"name":"Shin-oji Station","lat":34.5977464,"lng":135.7042419},
{"name":"Shinome Station","lat":35.6406958,"lng":139.8036097},
{"name":"Shin-Onomichi Station","lat":34.430112,"lng":133.1903},
{"name":"Shin-omuta Station","lat":33.0714255,"lng":130.4887139},
{"name":"Shin-omiya Station","lat":34.991801,"lng":135.824132},
{"name":"Shinoro Station","lat":43.144969,"lng":141.364169},
{"name":"Shin-omura Station","lat":0,"lng":0},
{"name":"Shinonome Station (Tokyo)","lat":35.6406958,"lng":139.8036097},
{"name":"Shinonome Station (Kyoto)","lat":35.4749373,"lng":135.2848803},
{"name":"Shinonoi Station","lat":36.5774935,"lng":138.1381952},
{"name":"Shin-osaka Station","lat":34.7331654,"lng":135.5002144},
{"name":"Shin-Otanoshike Station","lat":43.009362,"lng":144.29455},
{"name":"Shinozaki Station","lat":35.7059504,"lng":139.9039271},
{"name":"Shin-Otaru Station","lat":43.1976982,"lng":140.9936905},
{"name":"Shinozuka Station","lat":36.256749,"lng":139.446075},
{"name":"Shin-otsuka Station","lat":35.7260747,"lng":139.72983},
{"name":"Shin-otsu Station","lat":35.256868,"lng":139.69015},
{"name":"Shinsaibashi Station","lat":34.6750572,"lng":135.5003772},
{"name":"Shin-Rifu Station","lat":38.317334,"lng":140.973131},
{"name":"Shinrinkoen Station (Hokkaido)","lat":43.056205,"lng":141.481635},
{"name":"Shin-Sakaemachi Station (Aichi)","lat":35.170724,"lng":136.919974},
{"name":"Shinrinkoen Station (Saitama)","lat":36.04510399999999,"lng":139.375618},
{"name":"Shin-Sakaeno Station","lat":35.170724,"lng":136.919974},
{"name":"Shin-Sakuradai Station","lat":35.7411563,"lng":139.6687374},
{"name":"Shin-Sakaemachi Station (Fukuoka)","lat":33.03841,"lng":130.449919},
{"name":"Shin-Sanda Station","lat":34.910185,"lng":135.208494},
{"name":"Shin-Seibijo Station","lat":35.5429088,"lng":139.7874689},
{"name":"Shinseki Station","lat":37.768457,"lng":139.162313},
{"name":"Shin-Sayama Station","lat":35.8739956,"lng":139.4334541},
{"name":"Shin-Sapporo Station (Sapporo City Subway)","lat":43.0386993,"lng":141.4725532},
{"name":"Shinsen Station","lat":35.6572432,"lng":139.6936591},
{"name":"Shin-Sapporo Station (JR Hokkaido)","lat":43.0386993,"lng":141.4725532},
{"name":"Shin-Seto Station","lat":35.2255906,"lng":137.0779749},
{"name":"Shin-Shibaura Station","lat":35.491898,"lng":139.70014},
{"name":"Shinsen Ikebukuro Station","lat":35.6572432,"lng":139.6936591},
{"name":"Shinsen Shinjuku Station","lat":35.688431,"lng":139.698605},
{"name":"Shin-Shimashima Station","lat":36.1897743,"lng":137.8216657},
{"name":"Shin-Shibamata Station","lat":35.75104,"lng":139.879392},
{"name":"Shin-Shimizu Station","lat":35.0170531,"lng":138.4878768},
{"name":"Shin-Shirakawa Station","lat":37.1229144,"lng":140.1881074},
{"name":"Shin-Shimonoseki Station","lat":34.00692,"lng":130.949042},
{"name":"Shinshiraoka Station","lat":36.0387413,"lng":139.6721114},
{"name":"Shinshu-Nakano Station","lat":36.7447641,"lng":138.3649099},
{"name":"Shinsho Station","lat":34.95549099999999,"lng":136.618814},
{"name":"Shinshiro Station","lat":34.90112999999999,"lng":137.493018},
{"name":"Shin-Shizuoka Station","lat":34.975783,"lng":138.387355},
{"name":"Shin-Suya Station","lat":32.8540326,"lng":130.7327776},
{"name":"Shin-Sugita Station","lat":35.386768,"lng":139.619429},
{"name":"Shin-Suizenji Station","lat":32.7935776,"lng":130.7261291},
{"name":"Shin-Takaoka Station","lat":36.726965,"lng":137.012407},
{"name":"Shin-Takashima Station","lat":35.462038,"lng":139.626731},
{"name":"Shin-Takahama Station","lat":35.5068084,"lng":139.6175767},
{"name":"Shin-Takatoku Station","lat":36.7794546,"lng":139.7111784},
{"name":"Shin-Tanabe Station","lat":34.820653,"lng":135.772809},
{"name":"Shin-Takashimadaira Station","lat":35.7902417,"lng":139.6543044},
{"name":"Shin-Tamana Station","lat":32.9425792,"lng":130.5735888},
{"name":"Shintetsu Dojo Station","lat":34.866774,"lng":135.226105},
{"name":"Shintetsu Rokko Station","lat":34.7854433,"lng":135.2066197},
{"name":"Shin-Tokorozawa Station","lat":35.8067756,"lng":139.456209},
{"name":"Shin-Tochigi Station","lat":36.390104,"lng":139.7421529},
{"name":"Shintoku Station","lat":43.082303,"lng":142.832344},
{"name":"Shintomicho Station (Toyama)","lat":36.6988068,"lng":137.2113774},
{"name":"Shintomicho Station (Tokyo)","lat":35.670519,"lng":139.773599},
{"name":"Shin-Toride Station","lat":35.917415,"lng":140.04265},
{"name":"Shin-Toyama Station","lat":36.7020479,"lng":137.2134582},
{"name":"Shin-Tosu Station","lat":33.3704545,"lng":130.4910515},
{"name":"Shin-Toyohashi Station","lat":34.7632455,"lng":137.3828215},
{"name":"Shin-Totsukawa Station","lat":43.5458361,"lng":141.8743762},
{"name":"Shin-Toyosu Station","lat":35.6487106,"lng":139.7901001},
{"name":"Shin-Toyota Station","lat":35.087711,"lng":137.153735},
{"name":"Shin-Unuma Station","lat":35.396782,"lng":136.944214},
{"name":"Shin-Toyotsu Station","lat":35.6487106,"lng":139.7901001},
{"name":"Shin-Tsudanuma Station","lat":35.690134,"lng":140.023716},
{"name":"Shin-Tsuruba Station","lat":32.275145,"lng":130.965643},
{"name":"Shin-Uozu Station","lat":36.82663,"lng":137.405285},
{"name":"Shin-Urayasu Station","lat":35.649497,"lng":139.91256},
{"name":"Shin-Uwagoromo Station","lat":35.0713568,"lng":137.1512959},
{"name":"Shin-Yahashira Station","lat":35.7914751,"lng":139.9376051},
{"name":"Shin-Yakumo Station","lat":35.5068084,"lng":139.6175767},
{"name":"Shin-Yoshino Station","lat":42.778116,"lng":143.608543},
{"name":"Shin-Yamaguchi Station","lat":34.094944,"lng":131.395564},
{"name":"Shin-Yokohama Station","lat":35.5068084,"lng":139.6175767},
{"name":"Shin-Yokaichi Station","lat":35.11024099999999,"lng":136.191068},
{"name":"Shin-Yatsushiro Station","lat":32.51776830000001,"lng":130.6349851},
{"name":"Shin-Yubari Station","lat":42.936596,"lng":142.0365595},
{"name":"Shiodamachi Station","lat":36.360926,"lng":138.198373},
{"name":"Shinza Station","lat":37.139602,"lng":138.768792},
{"name":"Shin-Yurigaoka Station","lat":35.60344,"lng":139.5077543},
{"name":"Shinzaike Station","lat":34.71057,"lng":135.240582},
{"name":"Shinzo-kekkan Center Station","lat":36.405335,"lng":139.128985},
{"name":"Shiodome Station","lat":35.6628989,"lng":139.7599699},
{"name":"Shin-Zushi Station","lat":35.294306,"lng":139.580519},
{"name":"Shiogamaguchi Station","lat":35.132452,"lng":136.977471},
{"name":"Shiogo Station","lat":35.0035617,"lng":135.7720094},
{"name":"Shiohama Station","lat":34.9323834,"lng":136.6221774},
{"name":"Shiogama Station","lat":38.309697,"lng":141.009517},
{"name":"Shioiri Station (Kanagawa)","lat":35.280282,"lng":139.662485},
{"name":"Shiojiri Station","lat":36.1143132,"lng":137.9481179},
{"name":"Shiokari Station","lat":43.967988,"lng":142.45496},
{"name":"Shioiri Station (Kagawa)","lat":34.156018,"lng":133.849917},
{"name":"Shiokawa Station","lat":37.594331,"lng":139.887202},
{"name":"Shiomachi Station","lat":34.774177,"lng":132.913398},
{"name":"Shionomiya Station","lat":34.4670157,"lng":135.5792455},
{"name":"Shiomi Station (Tokyo)","lat":35.658882,"lng":139.817151},
{"name":"Shionosawa Station","lat":35.6284713,"lng":139.7387597},
{"name":"Shiomi Station (Hokkaido)","lat":42.550171,"lng":141.945151},
{"name":"Shiomibashi Station","lat":35.6661933,"lng":139.7583319},
{"name":"Shiotsu Station","lat":35.61409,"lng":139.073605},
{"name":"Shippo Station","lat":35.195885,"lng":136.8064},
{"name":"Shiosawa Station","lat":37.0414107,"lng":138.8485598},
{"name":"Shioya Station (Hokkaido)","lat":43.202531,"lng":140.9245391},
{"name":"Shiotsuka Station","lat":35.7260747,"lng":139.72983},
{"name":"Shirahama Station","lat":33.6757624,"lng":135.3871537},
{"name":"Shioya Station (Hyogo)","lat":34.633686,"lng":135.083376},
{"name":"Shiozaki Station","lat":35.687622,"lng":138.487847},
{"name":"Shiraichi Station","lat":34.4432546,"lng":132.8323142},
{"name":"Shioya Station (Kagawa)","lat":34.3356047,"lng":134.1553225},
{"name":"Shiraitodai Station","lat":35.666595,"lng":139.510011},
{"name":"Shirakawa Station","lat":37.130199,"lng":140.21275},
{"name":"Shirahamanomiya Station","lat":34.7868421,"lng":134.707257},
{"name":"Shirakawaguchi Station","lat":35.579351,"lng":137.184797},
{"name":"Shirakamidake-Tozanguchi Station","lat":40.5135779,"lng":139.9503902},
{"name":"Shiraikaigan Station","lat":40.03263400000001,"lng":141.883132},
{"name":"Shirakibaru Station","lat":33.528771,"lng":130.482681},
{"name":"Shirakiyama Station","lat":33.6757624,"lng":135.3871537},
{"name":"Shiraniwadai Station","lat":34.720885,"lng":135.716678},
{"name":"Shiranuka Station","lat":42.9560398,"lng":144.0768663},
{"name":"Shiraki Station","lat":34.429222,"lng":136.831147},
{"name":"Shirasagi Station","lat":34.550205,"lng":135.513285},
{"name":"Shiraoi Station","lat":42.554762,"lng":141.359927},
{"name":"Shiraoka Station","lat":36.017588,"lng":139.667094},
{"name":"Shirasaka Station","lat":37.0945056,"lng":140.1843894},
{"name":"Shirataki Station","lat":43.884968,"lng":143.181649},
{"name":"Shirasawa Station (Aichi)","lat":34.955082,"lng":136.915399},
{"name":"Shirasawa Station (Akita)","lat":40.338309,"lng":140.591814},
{"name":"Shirasawa Station (Kagoshima)","lat":31.256914,"lng":130.356694},
{"name":"Shiratsuka Station","lat":34.770676,"lng":136.532467},
{"name":"Shirasawa-keikoku Station","lat":35.215964,"lng":136.978519},
{"name":"Shirayama Station","lat":33.6757624,"lng":135.3871537},
{"name":"Shiretoko-Shari Station","lat":43.9109942,"lng":144.661526},
{"name":"Shiritsubyoin-mae Station","lat":26.2274937,"lng":127.7101164},
{"name":"Shirogahara Station","lat":34.137881,"lng":131.16113},
{"name":"Shirogane Station","lat":40.52198300000001,"lng":141.541747},
{"name":"Shiriuchi Station","lat":41.6005225,"lng":140.3341562},
{"name":"Shiroishi Station (Kumamoto)","lat":32.305718,"lng":130.60834},
{"name":"Shiroishi Station (Miyagi)","lat":38.0035902,"lng":140.6262463},
{"name":"Shiroi Station","lat":35.78470799999999,"lng":140.05421},
{"name":"Shiroishi Station (JR Hokkaido)","lat":43.046343,"lng":141.395505},
{"name":"Shiroishi-Zao Station","lat":37.994972,"lng":140.632814},
{"name":"Shirokanedai Station","lat":35.6384172,"lng":139.7267742},
{"name":"Shiroishi Station (Sapporo Subway)","lat":0,"lng":0},
{"name":"Shirokane-Takanawa Station","lat":35.642854,"lng":139.734076},
{"name":"Shiroku Station","lat":35.95891,"lng":138.993237},
{"name":"Shiroko Station","lat":34.8340573,"lng":136.5896616},
{"name":"Shiromaru Station","lat":35.811707,"lng":139.114761},
{"name":"Shiromigaoka Station","lat":35.291657,"lng":140.252352},
{"name":"Shironishi Station","lat":38.0035902,"lng":140.6262463},
{"name":"Shiroshita Station (Okayama)","lat":34.665601,"lng":133.929977},
{"name":"Shiroshita Station (Nagano)","lat":36.392452,"lng":138.242618},
{"name":"Shirousagi Station","lat":38.1501294,"lng":140.0410667},
{"name":"Shishibu Station","lat":33.7218042,"lng":130.458511},
{"name":"Shirotori-Kogen Station","lat":35.9127969,"lng":136.842979},
{"name":"Shishido Station","lat":36.344615,"lng":140.2893665},
{"name":"Shishikui Station","lat":33.566734,"lng":134.30059},
{"name":"Shishiori-Karakuwa Station","lat":38.915616,"lng":141.580966},
{"name":"Shitadan Station","lat":36.647717,"lng":137.3179738},
{"name":"Shisho Station","lat":35.0035617,"lng":135.7720094},
{"name":"Shisui Station","lat":35.73166399999999,"lng":140.275249},
{"name":"Shitanoe Station","lat":33.158589,"lng":131.811211},
{"name":"Shitayama Station","lat":36.8723393,"lng":137.4855126},
{"name":"Shiteguri Station","lat":35.311731,"lng":137.848472},
{"name":"Shitennoji-mae Yuhigaoka Station","lat":34.65831000000001,"lng":135.514163},
{"name":"Shiwachi Station","lat":34.740457,"lng":132.803908},
{"name":"Shitte Station","lat":35.53156,"lng":139.684251},
{"name":"Shitte Station (Ibaraki)","lat":35.53156,"lng":139.684251},
{"name":"Shiyakusho Station","lat":35.181472,"lng":136.905586},
{"name":"Shiwa-Chuo Station","lat":39.554835,"lng":141.159859},
{"name":"Shiwaguchi Station","lat":34.554447,"lng":132.658177},
{"name":"Shiyakusho-mae Station (Chiba)","lat":35.607201,"lng":140.107962},
{"name":"Shiyakusho-mae Station (Aichi)","lat":34.767281,"lng":137.392754},
{"name":"Shiyakusho-mae Station (Ehime)","lat":33.839837,"lng":132.764856},
{"name":"Shiyakusho-mae Station (Fukui)","lat":36.063521,"lng":136.217559},
{"name":"Shiyakusho-mae Station (Hiroshima)","lat":34.385805,"lng":132.4544444},
{"name":"Shiyakusho-mae Station (Kagoshima)","lat":31.597213,"lng":130.558113},
{"name":"Shiyakusho-mae Station (Kumamoto)","lat":32.803108,"lng":130.707152},
{"name":"Shiyakusho-mae Station (Nagano)","lat":36.6431243,"lng":138.1886437},
{"name":"Shizen'en-mae Station","lat":35.7703054,"lng":136.9311917},
{"name":"Shiyakusho-mae Station (Hokkaido)","lat":41.76942,"lng":140.725502},
{"name":"Shizu Station (Chiba)","lat":35.717468,"lng":140.144955},
{"name":"Shizuhama Station","lat":38.691612,"lng":141.489485},
{"name":"Shizugawa Station","lat":38.6766679,"lng":141.4496276},
{"name":"Shizu Station (Ibaraki)","lat":36.506109,"lng":140.438203},
{"name":"Shizukuishi Station","lat":39.6893629,"lng":140.9749577},
{"name":"Shizukari Station","lat":42.584119,"lng":140.460119},
{"name":"Shizuma Station","lat":35.1954294,"lng":132.4679685},
{"name":"Shizumi Station","lat":35.023335,"lng":138.489011},
{"name":"Shizuoka Station","lat":34.9714699,"lng":138.389172},
{"name":"Shizunai Station","lat":42.336516,"lng":142.3603491},
{"name":"Shobata Station","lat":35.195106,"lng":136.750155},
{"name":"Shogunzan Station","lat":43.857448,"lng":142.521267},
{"name":"Shizuwa Station","lat":34.9714699,"lng":138.389172},
{"name":"Shizuoka Freight Station","lat":34.98490950000001,"lng":138.4134384},
{"name":"Shoden Station","lat":39.612117,"lng":140.601183},
{"name":"Shoin-jinjamae Station","lat":35.6439804,"lng":139.6552074},
{"name":"Shobara Station","lat":35.393632,"lng":132.868326},
{"name":"Shoro Station","lat":42.983582,"lng":144.150037},
{"name":"Shoji Station (Osaka, Osaka)","lat":34.6612903,"lng":135.5563059},
{"name":"Shojaku Station","lat":34.775319,"lng":135.545442},
{"name":"Shomaru Station","lat":35.9383251,"lng":139.1820816},
{"name":"Shoji Station (Toyonaka, Osaka)","lat":34.804266,"lng":135.4754468},
{"name":"Shoko Center-iriguchi Station","lat":34.3755139,"lng":132.3920474},
{"name":"Shokokaigisho-mae Station","lat":36.0538846,"lng":136.2149185},
{"name":"Shonai Station (Oita)","lat":33.185078,"lng":131.401857},
{"name":"Shonai Station (Osaka)","lat":34.750209,"lng":135.475088},
{"name":"Shonan Station","lat":35.971008,"lng":139.623516},
{"name":"Shonai-dori Station","lat":35.2044674,"lng":136.8910859},
{"name":"Shonan-Enoshima Station","lat":35.3117812,"lng":139.4877095},
{"name":"Shonai-Ryokuchikoen Station","lat":35.21519,"lng":136.886892},
{"name":"Shiyakusho-mae Station (Wakayama)","lat":0,"lng":0},
{"name":"Shonandai Station","lat":35.396324,"lng":139.4665223},
{"name":"Shonan-Fukasawa Station","lat":35.332966,"lng":139.518912},
{"name":"Shotenkyo Station","lat":35.630124,"lng":134.928494},
{"name":"Shonan-kaigan-koen Station","lat":35.315162,"lng":139.483332},
{"name":"Showa Station (Kanagawa)","lat":35.50681300000001,"lng":139.723915},
{"name":"Shonan-Machiya Station","lat":35.337827,"lng":139.522689},
{"name":"Showacho Station (Kagawa)","lat":34.3440704,"lng":134.0321598},
{"name":"Shozui Station","lat":34.128647,"lng":134.5282555},
{"name":"Showajima Station","lat":35.570862,"lng":139.749994},
{"name":"Shudaifuzoku-suzugamine-mae Station","lat":34.368294,"lng":132.37455},
{"name":"Shoyama Station","lat":36.701612,"lng":137.213252},
{"name":"Showacho Station (Osaka)","lat":34.63348,"lng":135.51694},
{"name":"Shugakuin Station","lat":35.050238,"lng":135.790411},
{"name":"Showamachi Station","lat":35.746815,"lng":139.753876},
{"name":"Shukugawara Station (Aomori)","lat":40.5250328,"lng":140.5576392},
{"name":"Shukuin Station","lat":34.576229,"lng":135.471844},
{"name":"Shukunohe Station","lat":40.3662952,"lng":141.7466197},
{"name":"Shukugawara Station (Kanagawa)","lat":35.615408,"lng":139.579784},
{"name":"Shukugawa Station","lat":34.738902,"lng":135.33115},
{"name":"Shumombetsu Station","lat":43.8612332,"lng":141.5649074},
{"name":"Shuri Station","lat":26.219193,"lng":127.7255574},
{"name":"Shuntokumichi Station","lat":35.670519,"lng":139.773599},
{"name":"Sobanokami Station","lat":38.465937,"lng":141.2878189},
{"name":"Shurakuen Station","lat":35.042243,"lng":136.9031315},
{"name":"Sobudaimae Station","lat":35.499306,"lng":139.408526},
{"name":"Shuzenji Station","lat":34.979241,"lng":138.950974},
{"name":"Shuuchi-Kasagami Station","lat":34.170036,"lng":132.135625},
{"name":"Sobudaishita Station","lat":35.492778,"lng":139.386306},
{"name":"Sodesaki Station","lat":38.54829,"lng":140.391281},
{"name":"Sodani Station","lat":36.4897735,"lng":136.6142698},
{"name":"Socio Ryutsu Center Station","lat":36.1365676,"lng":139.4245266},
{"name":"Sodegaura Station","lat":35.4320256,"lng":139.9579157},
{"name":"Sodo Station","lat":36.153636,"lng":139.970646},
{"name":"Sogo Station","lat":34.7462715,"lng":134.297817},
{"name":"Soeda Station","lat":33.567274,"lng":130.85659},
{"name":"Soga Station","lat":35.5815296,"lng":140.1310474},
{"name":"Sogoundokoen Station","lat":34.6816916,"lng":135.0758423},
{"name":"Soen Station","lat":43.0694335,"lng":141.3330813},
{"name":"Sogo Rihabiri Center Station","lat":35.130479,"lng":136.954501},
{"name":"Sogosando Station","lat":35.752384,"lng":140.280692},
{"name":"Sohara Station (Mie)","lat":35.1109592,"lng":136.5603249},
{"name":"Sohara Station (Gifu)","lat":35.4032595,"lng":136.8708008},
{"name":"Soja Station","lat":34.67429,"lng":133.738077},
{"name":"Sojodaigakumae Station","lat":32.830771,"lng":130.694902},
{"name":"Sojiji Station","lat":34.826802,"lng":135.5843277},
{"name":"Soka Station","lat":35.828363,"lng":139.80384},
{"name":"Soma Station","lat":37.80253099999999,"lng":140.925714},
{"name":"Sone Station (Osaka)","lat":34.7714631,"lng":135.4676001},
{"name":"Sokei Station","lat":35.828363,"lng":139.80384},
{"name":"Sone Station (Hyogo)","lat":34.7932957,"lng":134.7699149},
{"name":"Sono Station","lat":35.456264,"lng":132.868297},
{"name":"Sonoda Station","lat":34.751903,"lng":135.447923},
{"name":"Soneda Station","lat":37.760328,"lng":140.459534},
{"name":"Sonobe Station","lat":35.1025556,"lng":135.4830756},
{"name":"Sonogi Station","lat":33.039817,"lng":129.914717},
{"name":"Sori Station","lat":36.58085,"lng":139.3964},
{"name":"Sosanji Station","lat":34.7309548,"lng":135.51007},
{"name":"Sounnosato-Ebara Station","lat":34.596544,"lng":133.507628},
{"name":"Sotaro Station","lat":32.786185,"lng":131.706925},
{"name":"Sozenji Station","lat":34.7309548,"lng":135.51007},
{"name":"Soshigaya-okura Station","lat":35.643298,"lng":139.6095157},
{"name":"Sounzan Station","lat":35.246463,"lng":139.035595},
{"name":"Suda Station","lat":34.328095,"lng":135.655558},
{"name":"Sudo Station","lat":35.160493,"lng":138.734235},
{"name":"Space World Station","lat":33.873601,"lng":130.811851},
{"name":"Sports Center Station","lat":35.643336,"lng":140.11621},
{"name":"Sue Station (Fukuoka)","lat":33.596819,"lng":130.49815},
{"name":"Sue-Chuo Station","lat":33.586959,"lng":130.505094},
{"name":"Suehiro Station","lat":40.229909,"lng":140.737334},
{"name":"Sue Station (Kagawa)","lat":34.250343,"lng":133.947849},
{"name":"Suehirocho Station (Kanagawa)","lat":35.491898,"lng":139.70014},
{"name":"Suehirocho Station (Hokkaido)","lat":41.766725,"lng":140.712115},
{"name":"Suehirocho Station (Tokyo)","lat":35.702543,"lng":139.771709},
{"name":"Suehirocho Station (Toyama)","lat":36.744851,"lng":137.013157},
{"name":"Suetsugi Station","lat":37.172327,"lng":140.995543},
{"name":"Suetachibana Station","lat":33.31577900000001,"lng":129.613821},
{"name":"Suetsune Station","lat":35.5240213,"lng":134.1361072},
{"name":"Suenohara Station","lat":35.618479,"lng":139.115463},
{"name":"Sufu Station","lat":34.8583108,"lng":132.0174686},
{"name":"Sugamo Station","lat":35.733705,"lng":139.740349},
{"name":"Sugamo-Shinden Station","lat":35.7356986,"lng":139.7276779},
{"name":"Sugikawachi Station","lat":33.26434,"lng":131.065441},
{"name":"Sugihara Station","lat":36.4158329,"lng":137.1921254},
{"name":"Sugano Station","lat":35.733705,"lng":139.740349},
{"name":"Sugao Station","lat":35.733705,"lng":139.740349},
{"name":"Sugaya Station","lat":37.350519,"lng":140.644537},
{"name":"Sugihashi Station","lat":35.0106022,"lng":135.6023229},
{"name":"Sugisaki Station","lat":36.249912,"lng":137.168884},
{"name":"Sugiyama Station","lat":34.680345,"lng":137.320874},
{"name":"Sugita Station (Fukushima)","lat":37.5632892,"lng":140.4137186},
{"name":"Sugo Station","lat":39.783724,"lng":141.148987},
{"name":"Sugita Station (Kanagawa)","lat":35.3835411,"lng":139.6158954},
{"name":"Sugito-Takanodai Station","lat":36.051502,"lng":139.714422},
{"name":"Sugimotocho Station","lat":34.5935176,"lng":135.5030422},
{"name":"Suhara Station (Gifu)","lat":35.5887723,"lng":136.9448229},
{"name":"Suhara Station (Nagano)","lat":35.697767,"lng":137.695137},
{"name":"Suibara Station","lat":37.8364803,"lng":139.2172501},
{"name":"Suidobashi Station","lat":35.7029293,"lng":139.7555605},
{"name":"Suidocho Station","lat":32.802386,"lng":130.712374},
{"name":"Suita Station (JR West)","lat":34.762765,"lng":135.52325},
{"name":"Suitengumae Station","lat":35.68299,"lng":139.785153},
{"name":"Suigo Station","lat":35.885488,"lng":140.570162},
{"name":"Suita Station (Hankyu)","lat":34.759376,"lng":135.517639},
{"name":"Suizenji Station","lat":32.796887,"lng":130.729734},
{"name":"Suka Station","lat":35.828363,"lng":139.80384},
{"name":"Suizenjiekidori Station","lat":0,"lng":0},
{"name":"Sukaguchi Station","lat":35.19869200000001,"lng":136.8462605},
{"name":"Sukenobu Station","lat":34.7245393,"lng":137.738608},
{"name":"Suma Station","lat":34.6422948,"lng":135.1129003},
{"name":"Sukagawa Station","lat":37.3003061,"lng":140.3721051},
{"name":"Sukumo Station","lat":35.733705,"lng":139.740349},
{"name":"Sumadera Station","lat":34.645768,"lng":135.116317},
{"name":"Suma-Kaihinkoen Station","lat":34.647185,"lng":135.126677},
{"name":"Sumaurakoen Station","lat":34.637852,"lng":135.100096},
{"name":"Sumidagawa Station","lat":35.6991309,"lng":139.7892234},
{"name":"Sumikawa Station","lat":43.01679,"lng":141.367259},
{"name":"Suminoe Station","lat":34.605254,"lng":135.487008},
{"name":"Suminodo Station","lat":34.706329,"lng":135.622465},
{"name":"Suminoekoen Station","lat":34.60902,"lng":135.4729192},
{"name":"Sumiyoshi Station (Hanshin)","lat":34.712986,"lng":135.261246},
{"name":"Sumiyoshi Station (Kumamoto)","lat":32.702007,"lng":130.597859},
{"name":"Sumiyoshi Station (JR West)","lat":34.7195613,"lng":135.2619235},
{"name":"Sumiyoshi Station (Osaka)","lat":34.613892,"lng":135.491702},
{"name":"Sumiyoshi Station (Tokyo)","lat":35.688762,"lng":139.8157347},
{"name":"Sumiyoshi Station (Nagasaki)","lat":32.792094,"lng":129.859756},
{"name":"Sumiyoshidori Station","lat":33.5765941,"lng":133.6361421},
{"name":"Sumiyoshicho Station","lat":34.8638124,"lng":137.0579119},
{"name":"Sumiyoshi-Higashi Station","lat":34.613475,"lng":135.497535},
{"name":"Sumiyoshi-Koen Station","lat":34.6127632,"lng":135.490256},
{"name":"Sumiyoshi-Taisha Station","lat":34.6127632,"lng":135.490256},
{"name":"Sunadabashi Station","lat":35.188812,"lng":136.9542343},
{"name":"Sumizome Station","lat":34.948388,"lng":135.76911},
{"name":"Sunagawa Station","lat":43.4929413,"lng":141.9091703},
{"name":"Sunagawa-Nanaban Station","lat":35.723392,"lng":139.418127},
{"name":"Sundome Nishi Station","lat":35.936563,"lng":136.180622},
{"name":"Sunza Station","lat":34.790062,"lng":137.612512},
{"name":"Sunami Station","lat":34.369949,"lng":133.083617},
{"name":"Suo-Hanaoka Station","lat":34.035907,"lng":131.867792},
{"name":"Suo-Sayama Station","lat":34.034841,"lng":131.363615},
{"name":"Suo-Kubo Station","lat":34.029242,"lng":131.919954},
{"name":"Suo-Takamori Station","lat":34.090726,"lng":132.0465101},
{"name":"Suo-Shimogo Station","lat":34.101585,"lng":131.401804},
{"name":"Susa Station","lat":34.6219728,"lng":131.6055006},
{"name":"Suruga-Tokuyama Station","lat":35.074681,"lng":138.11057},
{"name":"Suruga-Oyama Station","lat":35.3587061,"lng":138.9988435},
{"name":"Surisawa Station","lat":38.996016,"lng":141.321151},
{"name":"Susukino Station","lat":43.055451,"lng":141.353314},
{"name":"Susami Station","lat":33.5468243,"lng":135.4955319},
{"name":"Susenji Station","lat":33.570679,"lng":130.24609},
{"name":"Suwanokawara Station","lat":36.6922779,"lng":137.2064403},
{"name":"Susono Station","lat":35.171302,"lng":138.909276},
{"name":"Suwa Station","lat":32.923553,"lng":129.960244},
{"name":"Suwacho Station","lat":34.8234457,"lng":137.3705915},
{"name":"Susaki Station","lat":35.620023,"lng":139.728188},
{"name":"Suwanotaira Station","lat":40.414933,"lng":141.304663},
{"name":"Suwanomori Station","lat":34.551648,"lng":135.449097},
{"name":"Suzaki Station","lat":34.708878,"lng":135.377903},
{"name":"Suzuka Station","lat":34.878305,"lng":136.588819},
{"name":"Suzumeda Station","lat":33.960624,"lng":131.186883},
{"name":"Suya Station","lat":32.857853,"lng":130.736426},
{"name":"Suzukashi Station","lat":34.8840641,"lng":136.5823796},
{"name":"Suzuka Circuit Ino Station","lat":34.841002,"lng":136.555046},
{"name":"Suzukakedai Station","lat":35.5170506,"lng":139.4817461},
{"name":"Suzukicho Station","lat":35.535366,"lng":139.720637},
{"name":"Suzumenomiya Station","lat":36.4938021,"lng":139.8769169},
{"name":"Suzurannosato Station","lat":35.93053099999999,"lng":138.211723},
{"name":"Suzurandai Station","lat":34.726427,"lng":135.140673},
{"name":"Suzaka Station","lat":36.656756,"lng":138.304213},
{"name":"Tabaruzaka Station","lat":32.89934600000001,"lng":130.653182},
{"name":"Suzurandai-Nishiguchi Station","lat":34.726427,"lng":135.140673},
{"name":"Tabata Station (Nagano)","lat":35.860866,"lng":137.977829},
{"name":"Tabata Station (Tokyo)","lat":35.7383654,"lng":139.7607443},
{"name":"Tabushi Station","lat":35.42135,"lng":132.807109},
{"name":"Tabuse Station","lat":33.958725,"lng":132.043834},
{"name":"Tachibana Station","lat":34.7379728,"lng":135.3990863},
{"name":"Tabira-Hiradoguchi Station","lat":33.362607,"lng":129.582711},
{"name":"Tachiarai Station","lat":33.413898,"lng":130.618894},
{"name":"Tachikawa Station","lat":35.6979144,"lng":139.4137408},
{"name":"Tachikawa-Minami Station","lat":35.696145,"lng":139.412629},
{"name":"Tachikawa-Kita Station","lat":35.699506,"lng":139.412434},
{"name":"Tachihi Station","lat":35.714365,"lng":139.416989},
{"name":"Tachikoji Station","lat":35.6979144,"lng":139.4137408},
{"name":"Tachiki Station","lat":35.274313,"lng":135.337165},
{"name":"Tachita Station","lat":40.5851299,"lng":140.5380342},
{"name":"Tachima Station","lat":33.296727,"lng":132.539448},
{"name":"Tachiaigawa Station","lat":35.59847,"lng":139.738938},
{"name":"Tada Station (Tochigi)","lat":36.378045,"lng":139.592974},
{"name":"Tada Station (Hyogo)","lat":34.860334,"lng":135.416728},
{"name":"Tadami Station","lat":37.350454,"lng":139.314846},
{"name":"Tadachi Station","lat":35.64579760000001,"lng":139.7476565},
{"name":"Tado Station","lat":35.13386,"lng":136.640583},
{"name":"Tadanoumi Station","lat":34.33696279999999,"lng":132.991408},
{"name":"Tadotsu Station","lat":34.2711316,"lng":133.7567559},
{"name":"Tadaoka Station","lat":34.488793,"lng":135.397853},
{"name":"Tagami Station (Niigata)","lat":37.719044,"lng":139.074545},
{"name":"Tagami Station (Gifu)","lat":35.4114428,"lng":136.7721173},
{"name":"Tagajo Station","lat":38.291699,"lng":141.005379},
{"name":"Tagatajinjamae Station","lat":35.31743,"lng":136.9438},
{"name":"Tagi Station","lat":35.2749391,"lng":132.5895229},
{"name":"Tagawa-Gotoji Station","lat":33.630377,"lng":130.800149},
{"name":"Tagataishamae Station","lat":35.226452,"lng":136.284083},
{"name":"Tagawa-Ita Station","lat":33.642126,"lng":130.817786},
{"name":"Tagawa-Shiritsubyoin Station","lat":33.6588846,"lng":130.7994664},
{"name":"Tagokura Station","lat":35.3190012,"lng":139.5507329},
{"name":"Tagiri Station","lat":35.694859,"lng":137.9328118},
{"name":"Tahara Station","lat":34.86546,"lng":134.866804},
{"name":"Taicho no Sato Station","lat":0,"lng":0},
{"name":"Taihei Station","lat":43.12377600000001,"lng":141.348866},
{"name":"Tahoto Station","lat":35.116425,"lng":135.772742},
{"name":"Taiji Station","lat":33.5909366,"lng":135.927488},
{"name":"Tainohama Station","lat":33.7727077,"lng":134.5838199},
{"name":"Taikenkodo Station","lat":0,"lng":0},
{"name":"Taimadera Station","lat":34.516436,"lng":135.705797},
{"name":"Tairadate Station","lat":39.950758,"lng":141.085096},
{"name":"Tainose Station","lat":34.242206,"lng":135.229737},
{"name":"Taisei Station","lat":42.916053,"lng":143.069666},
{"name":"Taisanji Station","lat":35.263296,"lng":136.874753},
{"name":"Tairamachi Station","lat":35.7098045,"lng":139.7907555},
{"name":"Taisho Station (Nagasaki)","lat":32.860343,"lng":130.225555},
{"name":"Taishibashi-Imaichi Station","lat":34.7318551,"lng":135.5556155},
{"name":"Taishido Station","lat":38.218232,"lng":140.883421},
{"name":"Taito Station","lat":35.7002164,"lng":139.7716418},
{"name":"Taisho Station (Osaka)","lat":34.665525,"lng":135.479812},
{"name":"Taiyo Station","lat":35.7002164,"lng":139.7716418},
{"name":"Tajima Station (Nara)","lat":34.5693635,"lng":135.7681573},
{"name":"Tajibe Station","lat":35.0461489,"lng":133.5533412},
{"name":"Tajima Station (Tochigi)","lat":36.290193,"lng":139.564869},
{"name":"Tajimi Station","lat":35.3349794,"lng":137.1210416},
{"name":"Tajiri Station","lat":38.596169,"lng":141.0588574},
{"name":"Tajimakokomae Station","lat":37.209567,"lng":139.800727},
{"name":"Takachaya Station","lat":34.667271,"lng":136.512583},
{"name":"Taka Station","lat":35.6422371,"lng":139.2818171},
{"name":"Takada Station (Nara)","lat":34.516325,"lng":135.744739},
{"name":"Takabata Station","lat":35.1398606,"lng":136.853442},
{"name":"Takada Station (Niigata)","lat":37.1153895,"lng":138.242142},
{"name":"Takadahonzan Station","lat":34.755178,"lng":136.516413},
{"name":"Takadabashi Station","lat":35.6905093,"lng":139.7565376},
{"name":"Takadashi Station","lat":33.207855,"lng":130.041785},
{"name":"Takagari Station","lat":35.354472,"lng":134.206651},
{"name":"Takadano-tekkyo Station","lat":36.352547,"lng":140.580114},
{"name":"Takadanobaba Station","lat":35.7134467,"lng":139.7041376},
{"name":"Takagi Station (Toyama)","lat":36.606687,"lng":136.9359934},
{"name":"Takagi Station (Hiroshima)","lat":34.562959,"lng":133.253346},
{"name":"Takagimachi Station","lat":38.382774,"lng":141.073535},
{"name":"Takahagi Station","lat":36.714482,"lng":140.717003},
{"name":"Takahama Station (Ibaraki)","lat":36.163616,"lng":140.294396},
{"name":"Takahashi Station","lat":33.207855,"lng":130.041785},
{"name":"Takahamaminato Station","lat":34.921504,"lng":136.989338},
{"name":"Takahama Station (Shimane)","lat":35.3908382,"lng":132.747013},
{"name":"Takaharu Station","lat":31.926851,"lng":130.998927},
{"name":"Takahama Station (Ehime)","lat":33.883568,"lng":132.7020816},
{"name":"Takahata Station","lat":37.99232,"lng":140.1528},
{"name":"Takahata-Fudo Station","lat":35.6620887,"lng":139.4130085},
{"name":"Takaido Station","lat":35.683263,"lng":139.615195},
{"name":"Takaida Station (Kashiwara, Osaka)","lat":34.5714,"lng":135.639051},
{"name":"Takaida-Chuo Station","lat":34.6790009,"lng":135.5724113},
{"name":"Takaida Station (Higashiosaka, Osaka)","lat":34.6784548,"lng":135.572396},
{"name":"Takaishi Station","lat":34.521457,"lng":135.432793},
{"name":"Takaiwa Station (Nagasaki)","lat":33.29731,"lng":129.637319},
{"name":"Takako Station","lat":35.6422371,"lng":139.2818171},
{"name":"Takajo Station","lat":33.2427755,"lng":131.6554714},
{"name":"Takaiwa Station (Nagano)","lat":36.11582300000001,"lng":138.47747},
{"name":"Takamatsu Station (Ishikawa)","lat":36.7684288,"lng":136.7287988},
{"name":"Takamatsu Station (Kagawa)","lat":34.3508968,"lng":134.0467094},
{"name":"Takaku Station","lat":36.996544,"lng":140.087322},
{"name":"Takamatsu Station (Tokyo)","lat":35.7101562,"lng":139.4132523},
{"name":"Takamatsucho Station","lat":35.515126,"lng":133.239928},
{"name":"Takamatsu Freight Terminal Station","lat":0,"lng":0},
{"name":"Takamatsu-Chikko Station","lat":34.3507759,"lng":134.0494898},
{"name":"Takamizu Station","lat":34.055407,"lng":131.972976},
{"name":"Takaminosato Station","lat":34.575148,"lng":135.546143},
{"name":"Takamiya Station (Shiga)","lat":35.236228,"lng":136.260557},
{"name":"Takamitsu Station","lat":34.3505026,"lng":134.045566},
{"name":"Takamori Station","lat":32.819336,"lng":131.122476},
{"name":"Takamiya Station (Fukuoka)","lat":33.5670569,"lng":130.4145766},
{"name":"Takanawadai Station","lat":35.631661,"lng":139.730327},
{"name":"Takanabe Station","lat":32.1222817,"lng":131.5335076},
{"name":"Takanekido Station","lat":35.726797,"lng":140.034991},
{"name":"Takanohara Station","lat":34.7237342,"lng":135.7919078},
{"name":"Takanekodan Station","lat":35.730408,"lng":140.029408},
{"name":"Takanodai Station","lat":35.722976,"lng":139.461068},
{"name":"Takano Station","lat":35.7054067,"lng":139.6658254},
{"name":"Takanomiya Station","lat":35.471736,"lng":132.930374},
{"name":"Takao Station (Gifu)","lat":35.6013639,"lng":136.6258531},
{"name":"Takanosu Station","lat":40.2320644,"lng":140.3690891},
{"name":"Takaoka Station (Toyama)","lat":36.7457004,"lng":137.0153333},
{"name":"Takao Station (Tokyo)","lat":35.6422371,"lng":139.2818171},
{"name":"Takaoka Station (Manyosen)","lat":36.7412788,"lng":137.0155162},
{"name":"Takanoko Station","lat":35.6894072,"lng":139.7003058},
{"name":"Takaono Station","lat":35.6422371,"lng":139.2818171},
{"name":"Takaoka Station (Aichi)","lat":35.17414,"lng":136.916113},
{"name":"Takarabe Station","lat":31.728818,"lng":130.99146},
{"name":"Takaosanguchi Station","lat":35.6324936,"lng":139.269922},
{"name":"Takaracho Station","lat":35.6757268,"lng":139.7719462},
{"name":"Takaragaike Station","lat":35.058098,"lng":135.792299},
{"name":"Takarazuka Station (JR West)","lat":34.811449,"lng":135.340486},
{"name":"Takarazuka Station (Hankyu)","lat":34.811449,"lng":135.340486},
{"name":"Takarazuka-Minamiguchi Station","lat":34.804284,"lng":135.345847},
{"name":"Takasago Station (Hokkaido)","lat":43.100174,"lng":141.540738},
{"name":"Takasago Station (Hyogo)","lat":34.751944,"lng":134.802313},
{"name":"Takasaki Station","lat":36.322119,"lng":139.013443},
{"name":"Takasaka Station","lat":36.0028118,"lng":139.3976708},
{"name":"Takasaki-Shinden Station","lat":31.875914,"lng":131.062589},
{"name":"Takasaki-Shoka-Daigakumae Station","lat":36.2843567,"lng":139.0296023},
{"name":"Takasagocho Station","lat":35.6743941,"lng":139.7669788},
{"name":"Takashi Station","lat":34.7270679,"lng":137.3815517},
{"name":"Takashima Station","lat":34.68301599999999,"lng":133.95789},
{"name":"Takase Station (Yamagata)","lat":38.301597,"lng":140.396015},
{"name":"Takashimadaira Station","lat":35.788919,"lng":139.661271},
{"name":"Takashimaguchi Station","lat":35.462038,"lng":139.626731},
{"name":"Takashimacho Station","lat":35.458788,"lng":139.623537},
{"name":"Takase Station (Kagawa)","lat":34.1840743,"lng":133.7114195},
{"name":"Takashina Station","lat":35.555673,"lng":136.64029},
{"name":"Takasujinja Station","lat":0,"lng":0},
{"name":"Takashinohama Station","lat":34.527511,"lng":135.431904},
{"name":"Takasu Station (Kochi)","lat":33.559302,"lng":133.5769545},
{"name":"Takasu Station (Hiroshima)","lat":34.3898147,"lng":132.4169895},
{"name":"Takata Station (Kagawa)","lat":34.2885231,"lng":134.1121931},
{"name":"Takata Station (Fukuoka)","lat":33.5902414,"lng":130.4212219},
{"name":"Takasaki-Tonyamachi Station","lat":36.345811,"lng":139.016886},
{"name":"Takaosan Station","lat":0,"lng":0},
{"name":"Takatobara Station","lat":35.644611,"lng":137.900788},
{"name":"Takataki Station","lat":35.353092,"lng":140.150275},
{"name":"Takata Station (Kanagawa)","lat":35.549639,"lng":139.620117},
{"name":"Takatama Station","lat":36.1410797,"lng":137.2514322},
{"name":"Takatori Station (Hyogo)","lat":34.6515505,"lng":135.1352735},
{"name":"Takatori Station (Hiroshima)","lat":34.4751608,"lng":132.4381757},
{"name":"Takatsuki Station (Shiga)","lat":35.4712104,"lng":136.2372772},
{"name":"Takatsu Station (Kanagawa)","lat":35.6032697,"lng":139.6170635},
{"name":"Takatsu Station (Kyoto)","lat":35.304918,"lng":135.207036},
{"name":"Takatsuka Station","lat":34.690575,"lng":137.681954},
{"name":"Takatsuki-shi Station","lat":34.8497863,"lng":135.6230323},
{"name":"Takatsuno Station","lat":34.8517312,"lng":135.6177474},
{"name":"Takayama Station","lat":36.1410797,"lng":137.2514322},
{"name":"Takatsuki Station (Osaka)","lat":34.8497863,"lng":135.6230323},
{"name":"Takaya Station","lat":38.752507,"lng":140.070994},
{"name":"Takawashi Station","lat":33.207855,"lng":130.041785},
{"name":"Takayanagi Station","lat":35.8084893,"lng":139.9990837},
{"name":"Takebashi Station","lat":35.6905093,"lng":139.7565376},
{"name":"Takayasu Station","lat":34.619589,"lng":135.624384},
{"name":"Take Station","lat":35.012558,"lng":132.529786},
{"name":"Takayasuyama Station","lat":34.613581,"lng":135.6537605},
{"name":"Takayokosuka Station","lat":35.009714,"lng":136.893705},
{"name":"Takebe Station","lat":34.842219,"lng":133.899168},
{"name":"Takedao Station","lat":34.8551351,"lng":135.3058497},
{"name":"Takeda Station (Kyoto)","lat":34.9550533,"lng":135.756159},
{"name":"Takehara Station","lat":34.33696279999999,"lng":132.991408},
{"name":"Takefu Station","lat":35.903455,"lng":136.170902},
{"name":"Takeda Station (Hyogo)","lat":35.2990546,"lng":134.8356469},
{"name":"Takehana Station","lat":35.326756,"lng":136.706348},
{"name":"Takekoma Station","lat":39.0336518,"lng":141.6095964},
{"name":"Takemura Station","lat":35.040132,"lng":137.114768},
{"name":"Takekawa Station","lat":35.6979144,"lng":139.4137408},
{"name":"Takenaka Station","lat":33.120701,"lng":131.64942},
{"name":"Takematsu Station","lat":34.3505026,"lng":134.045566},
{"name":"Takeno Station","lat":35.649729,"lng":134.7565651},
{"name":"Takenami Station","lat":35.437954,"lng":137.353982},
{"name":"Takenotsuka Station","lat":35.794411,"lng":139.790775},
{"name":"Takeo-Onsen Station","lat":33.1964702,"lng":130.0230864},
{"name":"Takeshi Station","lat":35.38812890000001,"lng":132.7732399},
{"name":"Takeoka Station","lat":36.7457004,"lng":137.0153333},
{"name":"Takesato Station","lat":35.9490861,"lng":139.7705743},
{"name":"Takeshiba Station","lat":35.654131,"lng":139.76224},
{"name":"Takeshita Station","lat":33.568655,"lng":130.43174},
{"name":"Takeura Station","lat":35.040132,"lng":137.114768},
{"name":"Takezawa Station","lat":36.075486,"lng":139.229935},
{"name":"Taketoyo Station","lat":34.853343,"lng":136.921069},
{"name":"Taki Station (Mie)","lat":34.516123,"lng":136.573055},
{"name":"Takibe Station","lat":34.283916,"lng":130.94659},
{"name":"Taki Station (Tochigi)","lat":36.648585,"lng":140.138194},
{"name":"Taki Station (Hyogo)","lat":34.9487054,"lng":134.9624363},
{"name":"Takifudo Station","lat":35.737796,"lng":140.026103},
{"name":"Takidani-Fudo Station","lat":34.481215,"lng":135.58667},
{"name":"Takidani Station","lat":34.479437,"lng":135.562145},
{"name":"Takihama Station","lat":34.6905957,"lng":135.5065989},
{"name":"Takimoto Station","lat":35.796071,"lng":139.161563},
{"name":"Takikawa Station","lat":43.5551293,"lng":141.9007992},
{"name":"Takimizu Station","lat":32.933187,"lng":131.24274},
{"name":"Takihara Station","lat":34.360109,"lng":136.411964},
{"name":"Takii Station","lat":34.727797,"lng":135.557359},
{"name":"Takinoma Station","lat":40.3798391,"lng":140.002339},
{"name":"Takinochaya Station","lat":34.667271,"lng":136.512583},
{"name":"Takinomiya Station","lat":34.2482013,"lng":133.9222264},
{"name":"Takino Station","lat":35.6422371,"lng":139.2818171},
{"name":"Takinogawa-itchome Station","lat":35.747287,"lng":139.735405},
{"name":"Takizawa Station","lat":39.798806,"lng":141.1497369},
{"name":"Takio Station","lat":33.20933000000001,"lng":131.62317},
{"name":"Takiya Station","lat":37.494337,"lng":139.6979731},
{"name":"Takinoue Station","lat":42.910267,"lng":141.975599},
{"name":"Takiyama Station","lat":36.1410797,"lng":137.2514322},
{"name":"Takojizo Station","lat":35.6422371,"lng":139.2818171},
{"name":"Taku Station","lat":33.288114,"lng":130.0961694},
{"name":"Tako Station","lat":35.6422371,"lng":139.2818171},
{"name":"Takuhoku Station","lat":43.155579,"lng":141.381},
{"name":"Takuma Station","lat":36.1410797,"lng":137.2514322},
{"name":"Tamachi Station (Okayama)","lat":34.660768,"lng":133.926255},
{"name":"Tama Plaza Station","lat":35.5774058,"lng":139.5585278},
{"name":"Tama Center Station","lat":35.623931,"lng":139.422853},
{"name":"Tama Station","lat":34.20935559999999,"lng":135.3121019},
{"name":"Tamachi Station (Tokyo)","lat":35.64579760000001,"lng":139.7476565},
{"name":"Takyo Station","lat":35.01457,"lng":138.945778},
{"name":"Tamade Station (Nara)","lat":34.45836,"lng":135.748518},
{"name":"Tamade Station (Osaka)","lat":34.6236652,"lng":135.4902923},
{"name":"Tamado Station","lat":36.298591,"lng":139.938587},
{"name":"Tamae Station","lat":34.4054064,"lng":131.3799511},
{"name":"Tamagaki Station","lat":35.589497,"lng":139.668778},
{"name":"Tama-Dobutsukoen Station","lat":35.6486261,"lng":139.4037523},
{"name":"Tamagashi Station","lat":34.99563200000001,"lng":135.742306},
{"name":"Tamagawa Station (Osaka)","lat":34.689438,"lng":135.476201},
{"name":"Tamagawa Station (Iwate)","lat":40.380367,"lng":141.73496},
{"name":"Tamagawa Station (Tokyo)","lat":35.589497,"lng":139.668778},
{"name":"Tamagawajosui Station","lat":35.6979144,"lng":139.4137408},
{"name":"Tamagawagakuen-mae Station","lat":35.563495,"lng":139.463408},
{"name":"Tamagawamura Station","lat":35.589497,"lng":139.668778},
{"name":"Tamamizu Station","lat":34.800128,"lng":135.806946},
{"name":"Tamamura Station","lat":36.135471,"lng":139.969925},
{"name":"Tamano Station","lat":35.266237,"lng":136.747819},
{"name":"Tamana Station","lat":32.9425792,"lng":130.5735888},
{"name":"Tamanoe Station","lat":33.9127537,"lng":133.0990545},
{"name":"Tamarai Station","lat":32.947882,"lng":131.376088},
{"name":"Tamanoi Station","lat":35.3350621,"lng":136.7581122},
{"name":"Tamari Station","lat":36.1796,"lng":140.3151},
{"name":"Tamaru Station","lat":34.488461,"lng":136.633996},
{"name":"Tama-Reien Station","lat":35.666206,"lng":139.502539},
{"name":"Tamatsukuri Station","lat":34.673469,"lng":135.532835},
{"name":"Tambaguchi Station","lat":34.99563200000001,"lng":135.742306},
{"name":"Tamayodo Station","lat":36.116981,"lng":139.200158},
{"name":"Tamatsukurimachi Station","lat":0,"lng":0},
{"name":"Tamatsukuri-Onsen Station","lat":35.4308901,"lng":133.0117971},
{"name":"Tambabashi Station","lat":34.9387047,"lng":135.7654012},
{"name":"Tamba-Takeda Station","lat":35.243701,"lng":135.133962},
{"name":"Tamasakai Station","lat":35.601904,"lng":139.367303},
{"name":"Tameike-Sanno Station","lat":35.6738296,"lng":139.7417409},
{"name":"Tamba-oyama Station","lat":35.072296,"lng":135.1687054},
{"name":"Tammachi Station","lat":35.64579760000001,"lng":139.7476565},
{"name":"Tampi Station","lat":35.3608336,"lng":134.3562105},
{"name":"Tamura Station","lat":35.356298,"lng":136.282051},
{"name":"Tamoto Station","lat":35.349188,"lng":137.8375849},
{"name":"Tana Station","lat":35.535888,"lng":139.504516},
{"name":"Tanaka Station","lat":36.354569,"lng":138.32914},
{"name":"Tanagawa Station","lat":35.589497,"lng":139.668778},
{"name":"Tanabe Station","lat":34.6285405,"lng":135.5252258},
{"name":"Tanagata Station","lat":36.135369,"lng":139.25943},
{"name":"Tanami Station","lat":33.4878872,"lng":135.7185718},
{"name":"Tanakaguchi Station","lat":34.22706489999999,"lng":135.1931093},
{"name":"Tanakura Station","lat":35.3190012,"lng":139.5507329},
{"name":"Taneichi Station","lat":40.410363,"lng":141.715099},
{"name":"Tanashi Station","lat":35.7272,"lng":139.538978},
{"name":"Tanga Station","lat":33.880572,"lng":130.880163},
{"name":"Tango-Yura Station","lat":35.5158948,"lng":135.2794976},
{"name":"Tango-Kanzaki Station","lat":35.506563,"lng":135.294188},
{"name":"Tanigami Station","lat":34.76159,"lng":135.171392},
{"name":"Tanesashi-kaigan Station","lat":40.507098,"lng":141.607409},
{"name":"Tanihama Station","lat":35.6360645,"lng":139.883557},
{"name":"Tanigumiguchi Station","lat":35.527177,"lng":136.642236},
{"name":"Tanigashira Station","lat":31.789201,"lng":131.053925},
{"name":"Tanimachi Rokuchome Station","lat":34.675053,"lng":135.5170218},
{"name":"Tanimachi Yonchome Station","lat":34.68210699999999,"lng":135.517253},
{"name":"Tanikawa Station","lat":35.082884,"lng":135.049725},
{"name":"Taninokuchi Station","lat":31.533402,"lng":131.344545},
{"name":"Tanimachi Kyuchome Station","lat":34.6666617,"lng":135.5158157},
{"name":"Taniyama Station (Kagoshima Municipal Tramway)","lat":0,"lng":0},
{"name":"Tanno Station","lat":43.85120999999999,"lng":143.9424753},
{"name":"Tanjoji Station","lat":10.7781368,"lng":79.1392663},
{"name":"Tannowa Station","lat":34.3315228,"lng":135.1785923},
{"name":"Taniyama Station (JR Kyushu)","lat":32.937239,"lng":131.080226},
{"name":"Tano Station (Kochi)","lat":33.4302343,"lng":134.0081996},
{"name":"Tano Station (Miyazaki)","lat":31.838311,"lng":131.304346},
{"name":"Tanohata Station","lat":39.934286,"lng":141.933716},
{"name":"Tanokuchi Station","lat":35.0516489,"lng":138.0957042},
{"name":"Tanoura-Otachimisaki-koen Station","lat":32.36346,"lng":130.506543},
{"name":"Tanokura Station","lat":35.592838,"lng":138.931313},
{"name":"Tanokubo Station","lat":33.792844,"lng":132.86571},
{"name":"Tanuma Station","lat":36.366962,"lng":139.581865},
{"name":"Tansho Station","lat":34.665525,"lng":135.479812},
{"name":"Tanushimaru Station","lat":33.338825,"lng":130.6925},
{"name":"Tara Station","lat":33.025212,"lng":130.176083},
{"name":"Taoji Station","lat":34.8355604,"lng":135.2259701},
{"name":"Tappi-Kaitei Station","lat":41.2574935,"lng":140.348706},
{"name":"Taragi Station","lat":32.262812,"lng":130.933174},
{"name":"Taro Station","lat":39.73208899999999,"lng":141.964335},
{"name":"Tarobogu-mae Station","lat":35.108574,"lng":136.183985},
{"name":"Taromaru Angelland Station","lat":36.13118070000001,"lng":136.2057247},
{"name":"Tarui Station (Gifu)","lat":35.36969200000001,"lng":136.531084},
{"name":"Tarui Station (Osaka)","lat":34.374275,"lng":135.261563},
{"name":"Tarumi Station (Gifu)","lat":35.6357031,"lng":136.6153754},
{"name":"Tashiro Station","lat":33.3840027,"lng":130.5245517},
{"name":"Tarumi Station (Hyogo)","lat":34.629269,"lng":135.053518},
{"name":"Tatara Station (Tochigi)","lat":36.515987,"lng":140.089815},
{"name":"Tatara Station (Gunma)","lat":36.273693,"lng":139.500264},
{"name":"Tateba Station","lat":35.414484,"lng":139.500994},
{"name":"Tategahana Station","lat":36.731276,"lng":138.306988},
{"name":"Tateda Station","lat":33.5707424,"lng":133.6706214},
{"name":"Tatebori Station","lat":35.1680598,"lng":138.6460354},
{"name":"Tatekawame Station","lat":39.307748,"lng":140.997164},
{"name":"Tatebayashi Station","lat":36.24627100000001,"lng":139.5280222},
{"name":"Tateishi Station","lat":33.482074,"lng":131.477037},
{"name":"Tatekoshi Station","lat":33.482074,"lng":131.477037},
{"name":"Tateno Station (Kumamoto)","lat":32.877605,"lng":130.965044},
{"name":"Tatemachi Station","lat":34.3943645,"lng":132.4609305},
{"name":"Tateyama Station (Toyama)","lat":36.583242,"lng":137.44518},
{"name":"Tateyama Station (Chiba)","lat":34.995957,"lng":139.861896},
{"name":"Tateno Station (Saga)","lat":33.412508,"lng":130.539318},
{"name":"Tateyama Station (Yamagata)","lat":38.301707,"lng":140.370545},
{"name":"Tatsue Station","lat":33.970223,"lng":134.608856},
{"name":"Tatsumichi Station","lat":34.162033,"lng":134.557576},
{"name":"Tatsumi Station","lat":35.645772,"lng":139.810347},
{"name":"Tatsuno Station (Nagano)","lat":35.9845851,"lng":137.9978828},
{"name":"Tatsuno Station (Hyogo)","lat":34.825484,"lng":134.522363},
{"name":"Tatsuokajo Station","lat":36.204202,"lng":138.490688},
{"name":"Tatsuta Station","lat":37.282648,"lng":141.002843},
{"name":"Tatsumigaoka Station","lat":34.9628,"lng":136.9154624},
{"name":"Tatsutagawa Station","lat":34.617396,"lng":135.704627},
{"name":"Tatsuruhama Station","lat":37.0657004,"lng":136.8912227},
{"name":"Tatsutaguchi Station","lat":32.820524,"lng":130.747065},
{"name":"Tawarada Station","lat":35.314594,"lng":140.061422},
{"name":"Tawaramachi Station (Tokyo)","lat":35.7098045,"lng":139.7907555},
{"name":"Taura Station","lat":42.590886,"lng":141.883599},
{"name":"Tawaramachi Station (Fukui)","lat":36.0749515,"lng":136.2175962},
{"name":"Tawaramoto Station","lat":34.5537012,"lng":135.790515},
{"name":"Taya Station","lat":34.8962799,"lng":136.8311129},
{"name":"Tayoshi Station","lat":31.878892,"lng":131.430445},
{"name":"Tayoro Station","lat":44.240953,"lng":142.396253},
{"name":"Tazawa Station","lat":36.301649,"lng":137.941037},
{"name":"Tayama Station","lat":40.1395802,"lng":140.9441531},
{"name":"Tazawako Station","lat":39.700527,"lng":140.722196},
{"name":"Tejikara Station","lat":35.3983608,"lng":136.8049357},
{"name":"Tazoe Station","lat":36.6794081,"lng":137.3177051},
{"name":"Tehara Station","lat":35.027412,"lng":135.999365},
{"name":"Tegara Station","lat":34.8206,"lng":134.681655},
{"name":"Tazu Station","lat":34.951507,"lng":132.385801},
{"name":"Teine Station","lat":43.119968,"lng":141.243626},
{"name":"Tekuno-Sakaki Station","lat":36.440889,"lng":138.188093},
{"name":"Telecom Center Station","lat":35.617552,"lng":139.779434},
{"name":"Temma Station","lat":34.7050453,"lng":135.5121075},
{"name":"Tempaizan Station","lat":33.4822885,"lng":130.5299858},
{"name":"Tendai Station","lat":35.631171,"lng":140.112905},
{"name":"Temmabashi Station","lat":34.690328,"lng":135.516503},
{"name":"Tendo Station","lat":38.36006200000001,"lng":140.369403},
{"name":"Tengachaya Station","lat":34.637028,"lng":135.496784},
{"name":"Temmacho Station","lat":35.6907324,"lng":139.7784922},
{"name":"Tendo-Minami Station","lat":38.3427012,"lng":140.3659325},
{"name":"Tenjingawa Station","lat":34.3894478,"lng":132.4980055},
{"name":"Tenjin Station","lat":33.5902414,"lng":130.4212219},
{"name":"Tenjimbashisuji Rokuchome Station","lat":34.7107613,"lng":135.5108197},
{"name":"Tenjin-minami Station","lat":33.588613,"lng":130.4025001},
{"name":"Nishitetsu Fukuoka (Tenjin) Station","lat":33.5924881,"lng":130.4197695},
{"name":"Tenjin-yama Station","lat":33.186995,"lng":131.438882},
{"name":"Tenkubashi Station","lat":35.548032,"lng":139.754661},
{"name":"Tenno Station (Akita)","lat":39.898731,"lng":139.96367},
{"name":"Tenno Station (Hiroshima)","lat":34.2822008,"lng":132.5196354},
{"name":"Tennocho Station","lat":35.4539572,"lng":139.6028281},
{"name":"Tennoji Station","lat":34.6478416,"lng":135.5132226},
{"name":"Tenma-cho Station","lat":34.7072679,"lng":137.7326757},
{"name":"Tennojuku Station","lat":34.6478416,"lng":135.5132226},
{"name":"Tennodai Station","lat":35.8725333,"lng":140.0409173},
{"name":"Tennozu Isle Station","lat":35.6204286,"lng":139.750852},
{"name":"Tenoko Station","lat":38.011812,"lng":139.961122},
{"name":"Tennoji-eki-mae Station","lat":34.646083,"lng":135.512921},
{"name":"Tenri Station","lat":34.6009446,"lng":135.8306734},
{"name":"Tenryu-Futamata Station","lat":34.8592269,"lng":137.8197897},
{"name":"Tenryugawa Station","lat":34.717046,"lng":137.779389},
{"name":"Tento Station","lat":33.60535,"lng":130.677772},
{"name":"Ten-yaba Station","lat":36.52921,"lng":140.155892},
{"name":"Tenwa Station","lat":34.74901699999999,"lng":134.351326},
{"name":"Tenryukyo Station","lat":35.441104,"lng":137.817303},
{"name":"Terada Station (Kyoto)","lat":34.853205,"lng":135.77203},
{"name":"Terajicho Station","lat":35.69496,"lng":139.76746},
{"name":"Terada Station (Toyama)","lat":36.6990232,"lng":137.3186926},
{"name":"Teppocho Station","lat":34.9882022,"lng":135.7501839},
{"name":"Teradacho Station","lat":34.647778,"lng":135.52342},
{"name":"Teradomari Station","lat":37.6203796,"lng":138.8137832},
{"name":"Terahara Station","lat":35.911888,"lng":140.054454},
{"name":"Terasho Station","lat":34.665525,"lng":135.479812},
{"name":"Terashita Station","lat":36.383869,"lng":138.21626},
{"name":"Teramae Station","lat":35.065462,"lng":134.743169},
{"name":"Terao Station","lat":37.879022,"lng":138.973631},
{"name":"Teramoto Station","lat":35.0000201,"lng":136.8750611},
{"name":"Terauchi Station","lat":36.410968,"lng":139.980357},
{"name":"Teruoka Station","lat":33.327553,"lng":130.919897},
{"name":"Teshio-Nakagawa Station","lat":44.811761,"lng":142.075217},
{"name":"Tetaru Station","lat":43.1976982,"lng":140.9936905},
{"name":"Teshiogawa-Onsen Station","lat":44.664692,"lng":142.2586089},
{"name":"Toasa Station","lat":42.729365,"lng":141.769101},
{"name":"Tetsudo-Hakubutsukan Station","lat":35.920264,"lng":139.617797},
{"name":"Tobakaido Station","lat":34.973913,"lng":135.769943},
{"name":"Toba Station","lat":34.48676650000001,"lng":136.8431256},
{"name":"Tezukayama Station","lat":34.621669,"lng":135.498257},
{"name":"Tobanaka Station","lat":35.981474,"lng":136.1875089},
{"name":"Tobanoe Station","lat":36.22324,"lng":139.976337},
{"name":"Tobe Station","lat":35.45665,"lng":139.619537},
{"name":"Tobitakyu Station","lat":35.660041,"lng":139.523482},
{"name":"Tobata Station","lat":35.7383654,"lng":139.7607443},
{"name":"Tobu Kanasaki Station","lat":36.466317,"lng":139.749402},
{"name":"Tobu Izumi Station","lat":36.315687,"lng":139.455017},
{"name":"Tobu Nikko Station","lat":36.748309,"lng":139.61954},
{"name":"Tobushijo-mae Station","lat":34.6382978,"lng":135.5374604},
{"name":"Tobu Nerima Station","lat":35.768671,"lng":139.662382},
{"name":"Tobu Dobutsu Koen Station","lat":36.0200873,"lng":139.7197438},
{"name":"Tobu World Square Station","lat":36.8083331,"lng":139.7090826},
{"name":"Tochiya Station","lat":35.742234,"lng":139.7813859},
{"name":"Tobu Takezawa Station","lat":35.6292419,"lng":139.7329651},
{"name":"Tobu Utsunomiya Station","lat":36.5590234,"lng":139.8984511},
{"name":"Tochihara Station","lat":34.4445982,"lng":136.5094091},
{"name":"Toda Station (Aichi)","lat":35.1328615,"lng":136.8079702},
{"name":"Tochigi Station","lat":36.371688,"lng":139.731157},
{"name":"Tochomae Station","lat":35.69057,"lng":139.692661},
{"name":"Todaimae Station","lat":35.717818,"lng":139.758015},
{"name":"Toda Station (Saitama)","lat":35.817583,"lng":139.669574},
{"name":"Todakoen Station","lat":35.807806,"lng":139.678268},
{"name":"Tode Station","lat":34.54648900000001,"lng":133.30062},
{"name":"Todakohama Station","lat":35.4657858,"lng":139.6223132},
{"name":"Toden-Zoshigaya Station","lat":35.724094,"lng":139.717824},
{"name":"Todera Station","lat":37.569442,"lng":139.785157},
{"name":"Todoroki Station (Aomori)","lat":40.70733,"lng":139.983016},
